stop_id,stop_code,stop_name,stop_desc,stop_lat,stop_lon,zone_id,stop_url,location_type,parent_station
61_1906,,(X) Bº Sousas,,38.8087974706908,-9.13351428243836,,,,
61_1907,,(X) Bº Sousas (Av 25 Abril),,38.8088619887569,-9.13377226458783,,,,
61_888,,(X) Vila Vedra,,38.9386557845238,-9.1440218925685,,,,
61_1227,,(X) Vila Vedra,,38.938610392026,-9.14396591632779,,,,
61_2442,,A da Beja (Moinho Guizo) Av José Saramago (X),,38.7897163061639,-9.225267007661,,,,
61_2441,,A da Beja (Moinho Guizo) Av José Saramago Fte Lte,,38.7907821259738,-9.22697958152764,,,,
61_2440,,A da Beja (Moinho Guizo) Av José Saramago Lte 14,,38.7907433705152,-9.22691927554191,,,,
61_2439,,A da Beja (Moinho Guizo) Av José Saramago Lte 7,,38.7895993340661,-9.22508436860304,,,,
61_2443,,A da Beja (Moinho Guizo) R Alexandre Pinheiro Torr,,38.788041541002,-9.22449519441286,,,,
61_2438,,A da Beja (Moinho Guizo) R Alexandre Pinheiro Torr,,38.7880541764118,-9.22489341272032,,,,
61_792,,A da Beja (R Liberdade) (X) Fonte Avencas,,38.7876095953961,-9.22614213801579,,,,
61_771,,A da Beja (R Liberdade) (X) Fonte Avencas,,38.7875688711123,-9.22608431233568,,,,
61_2,,A da Beja (X),,38.7923577121579,-9.22839458418351,,,,
61_1,,A da Beja (X),,38.7920219002466,-9.22810383017452,,,,
61_666,,A Das Lebres (Chafariz),,38.8508738964396,-9.16449167211044,,,,
61_667,,A Das Lebres (Esc),,38.8524652025847,-9.16691878596299,,,,
61_665,,A Das Lebres (R Liberdade 11),,38.8484390296117,-9.16293420961393,,,,
61_674,,A Das Lebres (R Liberdade 11),,38.848400318714,-9.16287882676887,,,,
61_664,,A Das Lebres (R Liberdade 115),,38.8525996648022,-9.16707790276393,,,,
61_670,,A Das Lebres (R Liberdade 116),,38.8536996184336,-9.16897371776079,,,,
61_663,,A Das Lebres (R Liberdade 137),,38.8536177429295,-9.16887066871964,,,,
61_675,,A Das Lebres (R Major Rosa Basto),,38.8500113263685,-9.1647633970642,,,,
61_672,,A Das Lebres (Restaurante),,38.851486754004,-9.16600481191735,,,,
61_671,,A Das Lebres (Restaurante),,38.8515938067649,-9.16606637976853,,,,
61_676,,A Das Lebres (Serra‡Æo),,38.8570337981209,-9.16797745962184,,,,
61_673,,A Das Lebres (Serração),,38.8572706201904,-9.16779330895798,,,,
61_677,,A Do Baço (X) Alcareia,,38.9734399206727,-9.16342587542824,,,,
61_678,,A Do Baço (X) Alcareia,,38.973109377332,-9.16366098299451,,,,
61_680,,A Dos Potes (Metalúrgica),,38.8980912423632,-9.0501946244628,,,,
61_679,,A Dos Potes (Metalúrgica),,38.8983515799451,-9.05036788041018,,,,
61_681,,A Dos Potes (X),,38.899622364996,-9.05177990912611,,,,
61_682,,A Dos Potes (X),,38.89996101062,-9.05208528625748,,,,
61_2103,,Aguálva (Av Bons Amigos 88) (X) 4 Caminhos,,38.7715871273272,-9.29211977885612,,,,
61_566,,Albogas (Av Joaquim Silva) (X) R Rapoula,,38.8489947000686,-9.261011998856,,,,
61_4,,Albogas (Av Joaquim Silva) Fonte Pedra,,38.8502964855243,-9.25894728710998,,,,
61_5,,Albogas (Av Joaquim Silva) Fte Fonte Pedra,,38.8507831410953,-9.25844578816325,,,,
61_598,,Albogas (Av Joaquim Silva) Fte R Rapoula,,38.8494064178018,-9.2605564500203,,,,
61_57,,Albogas (Centro),,38.8534301402939,-9.25636483672855,,,,
61_6,,Albogas (Fte R Leonel Bento),,38.8535823487628,-9.25756692010404,,,,
61_9,,Albogas (X) Loures,,38.8535385666194,-9.25758830942724,,,,
61_10,,Albogas (X) Loures,,38.8535037169502,-9.25760533488055,,,,
61_58,,Albogas (X) R Leonel Bento,,38.8536195659251,-9.25758042340341,,,,
61_684,,Alcareia (Centro),,38.975110760716,-9.15254639231672,,,,
61_683,,Alcareia (Centro),,38.9749927372031,-9.15259494901144,,,,
61_685,,Alcareia (Chafariz),,38.9740584830351,-9.15577297058004,,,,
61_686,,Alcareia (Chafariz),,38.9741037246131,-9.15568910919807,,,,
61_2371,,Alcobela Baixo,,38.9546952212156,-9.15253654620609,,,,
61_2370,,Alcobela Baixo,,38.9546760706829,-9.15249591330232,,,,
61_687,,Alcobela Baixo (Esc),,38.9535533366722,-9.14975522970484,,,,
61_688,,Alcobela Baixo (Esc),,38.9534885649485,-9.14973077868496,,,,
61_689,,Alcobela Cima (R 26 Julho 1),,38.9562884772347,-9.15525119752043,,,,
61_690,,Alcobela Cima (R 26 Julho 1),,38.956290197484,-9.15522921755456,,,,
61_694,,Alcobela Cima (R 26 Julho 17),,38.9587599963518,-9.15695890528916,,,,
61_693,,Alcobela Cima (R 26 Julho 17),,38.9587687841906,-9.15696301184959,,,,
61_691,,Alcobela Cima (R 26 Julho Chafariz),,38.9599353244643,-9.157062436372,,,,
61_692,,Alcobela Cima (R 26 Julho Chafariz),,38.9599453231954,-9.15706229217743,,,,
61_696,,Alcobela Cima (X) Casal Mato,,38.9612608347714,-9.15803228599223,,,,
61_695,,Alcobela Cima (X) Casal Mato,,38.9611987336274,-9.15798690513651,,,,
61_12,,Almargem Bispo (Av Gen Humb Delgado) (X) Alfouvar,,38.8502362181337,-9.26414570000117,,,,
61_11,,Almargem Bispo (Av Gen Humb Delgado) (X) Alfouvar,,38.850247284656,-9.26379024812924,,,,
61_14,,Almargem Bispo (Cpo Futebol),,38.8476868028012,-9.26925452529123,,,,
61_13,,Almargem Bispo (Cpo Futebol),,38.8479672935678,-9.26862572329654,,,,
61_15,,Almargem Bispo (R Igreja 35),,38.844197521321,-9.2736682900382,,,,
61_16,,Almargem Bispo (R Serra) Chafariz,,38.8441983332381,-9.2727448290682,,,,
61_17,,Almargem Bispo (R Serra) Qta Galega,,38.8467501028957,-9.27088907080623,,,,
61_18,,Almargem Bispo (R Serra 56) Qta Galega,,38.8464471104221,-9.27130867455688,,,,
61_20,,Almornos (Estr Parque) Pq Campismo,,38.8263882957152,-9.26497931738148,,,,
61_19,,Almornos (Estr Parque) Pq Campismo,,38.8262737997704,-9.26482845401262,,,,
61_21,,Almornos (Estr Parque 17) Chafariz,,38.8318813436696,-9.27011424911213,,,,
61_22,,Almornos (Estr Parque 40),,38.8306590148888,-9.26860437482699,,,,
61_23,,Almornos (Estr Parque Fte 17) Chafariz,,38.8319935651833,-9.27010689013232,,,,
61_25,,Almornos (Estr Principal 34) (X) Mancebas,,38.8316518525384,-9.27151145157904,,,,
61_26,,Almornos (Estr Principal 34) (X) Mancebas,,38.831290893456,-9.27170258581867,,,,
61_701,,Alpriate (Esc),,38.8642863780381,-9.09350095792595,,,,
61_702,,Alpriate (Esc),,38.8641075148554,-9.09331812632249,,,,
61_703,,Alpriate (Lgo),,38.8627688682802,-9.09254354888234,,,,
61_1306,,Alto Bº Sousas,,38.8096121994158,-9.13989917137116,,,,
61_1307,,Alto Bº Sousas (X) R Vinha Grande,,38.8099010894778,-9.13951663670084,,,,
61_1947,,Alto Mucharros,,38.7927176799371,-9.13906162127067,,,,
61_1309,,Alto Mucharros (Pq Contentores),,38.7929216811894,-9.1383328492502,,,,
61_1310,,Alto Mucharros (X) Bº S Francisco,,38.7932869789371,-9.13843240283715,,,,
61_27,,Alvajar (R Alfredo Ruas 52),,38.8041992714913,-9.19940626569268,,,,
61_30,,Alvajar (R Principal) (X) R 25 Dezembro,,38.8001626298095,-9.19684451287835,,,,
61_29,,Alvajar (R Principal) (X) R 25 Dezembro,,38.8004384361761,-9.19690508959101,,,,
61_31,,Alvajar (R Principal) (X) Ramada,,38.8018895151662,-9.19809661582023,,,,
61_32,,Alvajar (R Principal 49 B),,38.8041946863851,-9.199437889537,,,,
61_33,,Alvajar (R Principal Fte 34 A),,38.8020868689517,-9.19812563870124,,,,
61_710,,Alverca (Armazém),,38.8871978909626,-9.03751090545756,,,,
61_1302,,Alverca (Armazém),,38.887192741529,-9.03751665958969,,,,
61_724,,Alverca (Av 5 Outubro) Fte Jardim,,38.9011217587572,-9.03855793360837,,,,
61_723,,Alverca (Av 5 Outubro 16) Mercado,,38.9012326310946,-9.03866936878572,,,,
61_712,,Alverca (Av Inf D Pedro 102),,38.8955889092678,-9.0374023243359,,,,
61_732,,Alverca (Av Inf D Pedro 107),,38.8959269513026,-9.03780565148526,,,,
61_898,,Alverca (Cemitério),,38.9072683225442,-9.03097724841959,,,,
61_713,,Alverca (EN 10),,38.8926565082148,-9.04202425898492,,,,
61_714,,Alverca (EN 10),,38.8918112501632,-9.04235318922923,,,,
61_718,,Alverca (EN 10) 70,,38.9018839896821,-9.03592150198023,,,,
61_715,,Alverca (EN 10) Consultório,,38.9004095781729,-9.03671467734792,,,,
61_913,,Alverca (EN 10) Fábrica,,38.9081447226784,-9.02895831323487,,,,
61_1315,,Alverca (EN 10) Quiosque,,38.8991633436267,-9.03735775449219,,,,
61_2061,,Alverca (Esc Secundária),,38.891174872902,-9.03576545078824,,,,
61_1240,,Alverca (Est Serviço),,38.888573442099,-9.04070592840134,,,,
61_721,,Alverca (Est Serviço),,38.8884184601856,-9.04057972662002,,,,
61_736,,Alverca (Estação CP),,38.8904834012275,-9.03423018437131,,,,
61_719,,Alverca (Estação CP),,38.8904327707788,-9.03414245399533,,,,
61_720,,Alverca (Estação CP),,38.8904410915571,-9.0343606729395,,,,
61_2060,,Alverca (Estação CP),,38.8902326650563,-9.03450406883107,,,,
61_2111,,Alverca (Estr Arcena) PSP,,38.9020179673438,-9.0409581467217,,,,
61_709,,Alverca (Estr Arcena 3),,38.902094649445,-9.04010471653849,,,,
61_716,,Alverca (Jardim),,38.8960771466243,-9.03905160689824,,,,
61_722,,Alverca (Lar 3ª Idade),,38.899744608381,-9.03725823849272,,,,
61_717,,Alverca (Pç Cova Bicho),,38.8947872955795,-9.04028250363416,,,,
61_725,,Alverca (Qta Moinho Ferro),,38.9025042865202,-9.0425247777619,,,,
61_731,,Alverca (R António Sérgio) Fte Piscinas,,38.8970648415432,-9.04054100964696,,,,
61_1962,,Alverca (R António Sérgio) Piscinas,,38.8969843167617,-9.04060042091798,,,,
61_891,,Alverca (R António Sérgio 10),,38.8934422431679,-9.04542118855357,,,,
61_767,,Alverca (R António Sérgio 10),,38.892951278294,-9.04593591402518,,,,
61_890,,Alverca (R António Sérgio 107),,38.8949328533214,-9.04362161586595,,,,
61_893,,Alverca (R António Sérgio 134),,38.8946925621708,-9.04391074107019,,,,
61_627,,Alverca (R Aviação 6),,38.8931788814121,-9.03842176661836,,,,
61_729,,Alverca (R Boca Lara),,38.8967810216138,-9.03902517701031,,,,
61_728,,Alverca (R Boca Lara),,38.8970440804501,-9.0393096800708,,,,
61_730,,Alverca (R Brig Alberto Fernandes 35),,38.8943446187539,-9.03828225053572,,,,
61_706,,Alverca (R Brig Fernando Alb Oliveira 24),,38.8948458074764,-9.03875372577994,,,,
61_708,,Alverca (R Brig Fernando Alb Oliveira 42),,38.8931954480587,-9.0404045374511,,,,
61_896,,Alverca (R Dr Miguel Bombarda 41),,38.8994094376513,-9.03907203404856,,,,
61_734,,Alverca (R Indústria 2),,38.8910163589836,-9.04092872560464,,,,
61_733,,Alverca (R Indústria 3),,38.8907236136458,-9.04047675103051,,,,
61_707,,Alverca (R Juventude 13),,38.8920653116208,-9.04018356688799,,,,
61_737,,Alverca (R Trabalhador 10),,38.8921712358317,-9.04008131846976,,,,
61_897,,Alverca (R Vasco Gama 49),,38.8923544433667,-9.04520897460344,,,,
61_1028,,Alverca (R Vasco Gama 49),,38.8924271892225,-9.04537139556056,,,,
61_908,,Alverca (Urb Malva Rosa),,38.8915220303004,-9.04568403715596,,,,
61_2445,,Alverca (Urb Malva Rosa),,38.8890466216005,-9.0476769488965,,,,
61_2226,,Alverca (Urb Malva Rosa) Av Mague,,38.88998898181,-9.04610326105998,,,,
61_2153,,Alverca (Urb Malva Rosa) Av Mague,,38.8900170466834,-9.04607461261253,,,,
61_2223,,Alverca (Urb Malva Rosa) Escolas,,38.8883028597357,-9.04797394379798,,,,
61_2224,,Alverca (Urb Malva Rosa) R Major Ed Rosário Gonçal,,38.8880663327863,-9.04701949641555,,,,
61_2040,,Alverca (Z Indústrial),,38.9071913302998,-9.02727316005177,,,,
61_2044,,Alverca (Z Indústrial) (X) EN 10,,38.9079387111121,-9.02776664482314,,,,
61_2042,,Alverca (Z Industrial) Armazém,,38.904146438901,-9.02829429424756,,,,
61_2043,,Alverca (Z Indústrial) Transitário,,38.9055377477433,-9.02670437706732,,,,
61_2041,,Alverca (Z Indústrial) Transitário,,38.9059137729002,-9.02675852201208,,,,
61_2437,,Alverca Monumento,,38.8939806691937,-9.03580091833007,,,,
61_2448,,Alverca Monumento,,38.8939951331113,-9.03581337876061,,,,
61_35,,Amoreira (EN 250/2) Aires (X) Pedernais,,38.806361070582,-9.20025118079195,,,,
61_36,,Amoreira (EN 250/2) Aires (X) Pedernais,,38.8064019183578,-9.20045523599124,,,,
61_37,,Amoreira (EN250/2),,38.8047112244647,-9.19605694331181,,,,
61_118,,Amoreira (R Poder Local) (X) R Lgo Amoreira,,38.8065524764578,-9.19583229424746,,,,
61_662,,Amoreira (R Poder Local 14),,38.8067734868993,-9.19858206131191,,,,
61_34,,Amoreira 16 (EN 250/2),,38.804884374067,-9.19637999395453,,,,
61_2123,,Apelação (Av Basília Lte 40),,38.815796207895,-9.13048339069687,,,,
61_2122,,Apelação (Av Basília Lte 91),,38.8132980032908,-9.12978437882115,,,,
61_2399,,Apelação (Av Brasília) Centro Comunitário,,38.8177680099422,-9.13064259323506,,,,
61_2124,,Apelação (Av Brasília) Chafariz,,38.8157213478965,-9.13046517570429,,,,
61_1318,,Apelação (Av Brasília) Fte Lote 91,,38.8138687346105,-9.12996711905924,,,,
61_2400,,Apelação (Av Brasília) Qta Arneiro,,38.8175190174704,-9.13068739441693,,,,
61_1320,,Apelação (Bº Qta Fonte) Av José Afonso (X) R And C,,38.8187365509796,-9.1324622302683,,,,
61_1321,,Apelação (Bº Qta Fonte) Av José Afonso 18,,38.8188328450626,-9.13303453714188,,,,
61_1322,,Apelação (Bº Qta Fonte) Av José Afonso 4,,38.8191355428787,-9.13456291474268,,,,
61_1323,,Apelação (Bº Qta Fonte) Av José Afonso 5,,38.8190757842793,-9.13425373628091,,,,
61_1908,,Apelação (Colégio),,38.8110183528052,-9.13157359541698,,,,
61_1326,,Apelação (EN 250) (X) Bº N Sra Conceição,,38.8126417608743,-9.13002498223837,,,,
61_1333,,Apelação (EN 250) (X) Bº N Sra Conceição,,38.8124377903977,-9.12939940949505,,,,
61_1325,,Apelação (EN 250) (X) Bº Qta Fonte,,38.8179478141347,-9.13585926355191,,,,
61_1328,,Apelação (EN 250) (X) R Angola,,38.8135484744259,-9.13204868913474,,,,
61_1329,,Apelação (EN 250) (X) R Gen Humb Delgado,,38.8135616138277,-9.13206153490149,,,,
61_1330,,Apelação (EN 250) Semáforos,,38.8149653113162,-9.13318109455336,,,,
61_1331,,Apelação (EN 250) Semáforos,,38.8149476457212,-9.13317079518941,,,,
61_1404,,Apelação (Fte Sociedade S Paulo),,38.8110134378088,-9.13157014009694,,,,
61_1332,,Apelação (X) Bº Qta Fonte,,38.8179531042733,-9.13588655012029,,,,
61_746,,Arcena,,38.9077352552271,-9.05118096380831,,,,
61_740,,Arcena (R Ivone Silva) (X),,38.908275046589,-9.05024896886887,,,,
61_1269,,Arcena (R Ivone Silva Lte 2),,38.9069992689111,-9.0512919994575,,,,
61_741,,Arcena (R José Eduardo Vieira 40),,38.906723794206,-9.05190722934314,,,,
61_745,,Arcena (R José Eduardo Vieira 50),,38.9052945407853,-9.05070791204614,,,,
61_744,,Arcena (R José Eduardo Vieira 50),,38.9053819734465,-9.05082783022176,,,,
61_742,,Arcena (R José Eduardo Vieira Lte 2),,38.9065888149191,-9.05186889315108,,,,
61_748,,Arcena (X),,38.9031821892006,-9.05600109621804,,,,
61_747,,Arcena (X),,38.9031942954292,-9.05589753927072,,,,
61_332,,Arroja (Av Acácias) Café,,38.7943766181888,-9.19522917856341,,,,
61_41,,Arroja (Av Acácias) Fte Café,,38.7947170911391,-9.19535878348911,,,,
61_136,,Arroja (Estr Arroja) Chafariz,,38.796393421929,-9.18967461410562,,,,
61_916,,Arroja (Estr Arroja) Ponte,,38.794263453907,-9.1855977676232,,,,
61_912,,Arroja (Estr Arroja) Ponte,,38.7944024979239,-9.18585773570791,,,,
61_1201,,Arroja (Estr Arroja 1),,38.7957198929888,-9.1883371398949,,,,
61_862,,Arroja (Estr Arroja 12),,38.7956059186513,-9.18806875211432,,,,
61_43,,Arroja (Pcta Manuela Porto),,38.7988946538766,-9.19290671827982,,,,
61_2102,,Arroja (Prof Bissaya Barreto) (X) R Dr Elysio Mour,,38.7966578210792,-9.19093755093375,,,,
61_1347,,Arroja (Prof Bissaya Barreto) (X) R Dr Elysio Mour,,38.7966223292893,-9.19046382622034,,,,
61_2381,,Arroja (R Clementina Carneiro Moura) (X) R Moreira,,38.7966298768042,-9.19427656855531,,,,
61_2380,,Arroja (R Clementina Carneiro Moura 7),,38.7966147202441,-9.19487696826803,,,,
61_402,,Arroja (R Dr João Santos) Lgo Escola,,38.7978903552969,-9.19353416365539,,,,
61_403,,Arroja (R Dr João Santos 38) Lgo Escola,,38.7981589022287,-9.19354645367477,,,,
61_47,,Arroja (R M Guilh Ascenso) Centro Comercial,,38.7974028650174,-9.19229087572993,,,,
61_48,,Arroja (R M Guilh Ascenso) Centro Comercial,,38.797072428106,-9.1922946544669,,,,
61_49,,Aruil (R Dr Fontes 130) (X) R Escola Primária,,38.8410318922778,-9.25658507139483,,,,
61_700,,Aruil (R Dr Joaquim Fontes) (X) R G Ant Ferreira,,38.8389154490455,-9.25545185690149,,,,
61_52,,Aruil (R Dr Joaquim Fontes) Café,,38.8367280626115,-9.25357894409175,,,,
61_53,,Aruil (R Dr Joaquim Fontes) Café,,38.8393015012487,-9.25554252018227,,,,
61_50,,Aruil (R Dr Joaquim Fontes 130),,38.8352863443426,-9.25338827245497,,,,
61_55,,Aruil (R Dr Joaquim Fontes 130),,38.8349445804045,-9.25294930354905,,,,
61_51,,Aruil (R Dr Joaquim Fontes Fte 145),,38.8367403649361,-9.25358329212598,,,,
61_2359,,Aruil (X) Casal Serra,,38.832660955779,-9.25094629766877,,,,
61_59,,Aruil (X) R Casal Serra,,38.8322320659502,-9.25076510053845,,,,
61_60,,Aruil (X) R Escola,,38.8407981833251,-9.25636364780666,,,,
61_2132,,B§ Zambujeiro (R 25 Abril 13),,38.8576736881377,-9.15752374422934,,,,
61_2133,,B§ Zambujeiro (R D Pedro V 10),,38.8587739451843,-9.15778712248602,,,,
61_2000,,B§ Zambujeiro (R Jos‚ Afonso 39),,38.8588847084504,-9.1563054440186,,,,
61_711,,Belas (Av Gen Humb Delgado 29),,38.7765605810511,-9.26041881062079,,,,
61_70,,Belas (Av Gen Humb Delgado Fte 29),,38.7771917417875,-9.26056225013462,,,,
61_76,,Belas (Av Marinha Portuguesa),,38.7751772736817,-9.26064861838476,,,,
61_71,,Belas (Av Marinha Portuguesa),,38.7753984902478,-9.2616857365273,,,,
61_72,,Belas (Av Veiga Cunha 15),,38.7762471656625,-9.26897187975103,,,,
61_73,,Belas (Av Veiga Cunha 22A) Qta Oliveirinha,,38.776224991986,-9.26845374356164,,,,
61_74,,Belas (Jardim 25 Abril),,38.7757701671885,-9.26399863185767,,,,
61_1550,,Belas (Jardim 25 Abril),,38.7759672659988,-9.26411417634266,,,,
61_1200,,Bemposta (Capela),,38.9102338937549,-9.12838153220437,,,,
61_755,,Bemposta (Capela),,38.9100753852454,-9.1286747400241,,,,
61_754,,Bemposta (Capela),,38.9100845164178,-9.12873493513852,,,,
61_753,,Bemposta (Lgo Prudênciana),,38.911268129555,-9.12903576985141,,,,
61_756,,Bemposta (R 25 Abril) Chafariz,,38.9105507049722,-9.13011562570848,,,,
61_757,,Bemposta (R 25 Abril 37),,38.9110476738362,-9.13074492366534,,,,
61_2109,,Bemposta (R 25 Abril 55),,38.9117142281911,-9.13241442894903,,,,
61_2110,,Bemposta (R 25 Abril 55),,38.9117193340856,-9.13246515937717,,,,
61_750,,Bemposta (R 25 de Abril 73),,38.913065518646,-9.13537486381224,,,,
61_758,,Bemposta (R Combatentes) Chafariz,,38.9125607409281,-9.13168448519519,,,,
61_751,,Bemposta (R Combatentes 28),,38.9120787712513,-9.13051020450564,,,,
61_761,,Bemposta (R Escola) (X) EN 115,,38.9130503918744,-9.13499148078397,,,,
61_752,,Bemposta (R Escola 12),,38.9125516365641,-9.13309552721145,,,,
61_749,,Bemposta (X) R Escola,,38.9127828834626,-9.13496015467559,,,,
61_1336,,Bº Alto Moinho (R Ant Sérgio) Portão Escola C+S,,38.8165905694958,-9.12592836565235,,,,
61_1337,,Bº Alto Moinho (R Ant Sérgio) Praceta,,38.8157144228889,-9.12771901267178,,,,
61_1338,,Bº Alto Moinho (R Ant Sérgio 63),,38.8165614832268,-9.12598336067888,,,,
61_1335,,Bº Alto Moínho (R António Sérgio) Moinho,,38.8154202331695,-9.12781490697058,,,,
61_1340,,Bº Angola (R Cidade Luanda) BPI,,38.7903011040305,-9.14131089208955,,,,
61_1926,,Bº Angola (R Sto António Zaire) Esc Secundária,,38.7922434863864,-9.14209311736524,,,,
61_1339,,Bº Angola (X) Qta Serrado,,38.78997172307,-9.14129647813908,,,,
61_1341,,Bº Ariola (R Cap Henr Galvão) Café,,38.8532877175308,-9.0810486044316,,,,
61_1342,,Bº Ariola (R Cap Henr Galvão) Fte Café,,38.8531030755314,-9.08115849644128,,,,
61_1343,,Bº Barreiro (R Circunvalação),,38.8344640786201,-9.09383379595536,,,,
61_1344,,Bº Barreiro (X) Bº Duas Portas,,38.8343902406704,-9.09381619856447,,,,
61_1521,,Bº Bogalheira (R 25 Abril) (X) R 4 Outubro,,38.8088948589649,-9.1409792700098,,,,
61_1358,,Bº Bogalheira (R República ) Restaurante,,38.8086023719872,-9.14097475375016,,,,
61_1353,,Bº Bolonha (R Prof Dr Egas Moniz) (X) R Ant Silva,,38.8560897041207,-9.07220728748848,,,,
61_1357,,Bº Bolonha (R Prof Dr Egas Moniz 1),,38.8563902358072,-9.07212503581731,,,,
61_1354,,Bº Bolonha (R Prof Egas Moniz) (X) R José Afonso,,38.857827300377,-9.07289492879962,,,,
61_1426,,Bº Casal Machados (R Joaq Pires Jorge),,38.8154265461322,-9.12189557583085,,,,
61_1359,,Bº Casal Machados (R Joaq Pires Jorge) Cabine EDP,,38.8147659669945,-9.1248679550032,,,,
61_1360,,Bº Casal Machados (R Joaq Pires Jorge Fte 15),,38.8145480877451,-9.12507731284406,,,,
61_1361,,Bº Castelhana (R Brasil),,38.8283717100155,-9.09306527561904,,,,
61_1362,,Bº Castelhana (R Loures 61),,38.8282450326987,-9.09328081736893,,,,
61_1363,,Bº Castelhana (R Sociedade Lte 305),,38.8270033187065,-9.09312530102038,,,,
61_1364,,Bº Cativo (Estr Cruzinha Fte Lte 15),,38.8423441203119,-9.08966767764357,,,,
61_1365,,Bº Cativo (Estr Cruzinha Lte 15),,38.8423868129516,-9.08967011183993,,,,
61_1813,,Bº Chepsi (R Antero Quental 6),,38.8641345628872,-9.06887267787704,,,,
61_1366,,Bº Coroas (Av Forças Armadas) (X) R 25 Dezembro,,38.8213884990774,-9.12351857819696,,,,
61_2373,,Bº Coroas (Av Forças Armadas) (X) R Bartolomeu Dia,,38.8230425772194,-9.12593517180575,,,,
61_1367,,Bº Coroas (Av Forças Armadas) (X) R Cemitério,,38.8231807202968,-9.12631049113612,,,,
61_1368,,Bº Coroas (Av Forças Armadas) Escola,,38.8213348417175,-9.12338201721967,,,,
61_1369,,Bº Coroas (R Bartolomeu Dias) Fte Café,,38.8211175991684,-9.12484073166655,,,,
61_1370,,Bº Coroas (R Bartolomeu Dias) Vivenda,,38.8227508791246,-9.12613417100366,,,,
61_1822,,Bº Courelas (R Progresso),,38.8397678489797,-9.09144701052271,,,,
61_1890,,Bº Courelas (R Progresso),,38.8412750645346,-9.09029366520928,,,,
61_1916,,Bº Courelas (R Progresso),,38.8397523495084,-9.09144701148187,,,,
61_1978,,Bº Courelas (R Progresso) Café,,38.8381839670125,-9.09089478374817,,,,
61_1816,,Bº Courelas (R Progresso) Policlínica,,38.8382880764895,-9.09093745180373,,,,
61_1846,,Bº Courelas (R Progresso 96),,38.8412617421461,-9.0903288425203,,,,
61_360,,Bº Covina (R 10 Julho) Escola Primária,,38.8355414578979,-9.08911233863142,,,,
61_1657,,Bº Covina (R 10 Julho 22),,38.8352777423441,-9.08930873304227,,,,
61_1619,,Bº Covina (R 10 Julho 5),,38.83750598706,-9.08850063843403,,,,
61_1620,,Bº Covina (R 10 Julho Fte 3),,38.8375512572492,-9.08848631212044,,,,
61_1972,,Bº Espinhal (R Com Ramiro Correia),,38.8342327750945,-9.126511454314,,,,
61_1994,,Bº Espinhal (R Com Ramiro Correia),,38.8309287492965,-9.13348245292774,,,,
61_1995,,Bº Espinhal (R Com Ramiro Correia),,38.8342437132959,-9.12666937302642,,,,
61_2405,,Bº Espinhal (R Com Ramiro Correia),,38.8309371615344,-9.13346862563059,,,,
61_2404,,Bº Espinhal (R Com Ramiro Correia),,38.8291136767423,-9.13826880257604,,,,
61_2403,,Bº Espinhal (R Com Ramiro Correia),,38.8291541220676,-9.13822743394139,,,,
61_1382,,Bº Espinhal (R Com Ramiro Correia) Caixa TLP,,38.834030072681,-9.12910337787022,,,,
61_1973,,Bº Espinhal (R Com Ramiro Correia) Vivenda,,38.8340579855565,-9.12898738368949,,,,
61_1387,,Bº Estacal Novo (Pcta Gen Humb Delgado),,38.8323314332491,-9.09331209025703,,,,
61_1386,,Bº Estacal Novo (Pcta Gen Humb Delgado),,38.8325005515122,-9.09333256392791,,,,
61_1388,,Bº Estacal Novo (R Circunvalação) Cabine EDP,,38.8311429925238,-9.09310260628803,,,,
61_1389,,Bº Estacal Novo (R Circunvalação Lte 74),,38.8312423226457,-9.09311872462309,,,,
61_1943,,Bº Fontaínhas (Est Bº S Francisco) Bloco C,,38.7888287270411,-9.14059769150689,,,,
61_1927,,Bº Fontaínhas (Est Bº S Francisco) Fte Bloco C,,38.7889773726545,-9.14043156271704,,,,
61_1390,,Bº Fraternidade (Inf Sagres) Fte Igreja,,38.8156807690468,-9.10366373360722,,,,
61_1391,,Bº Fraternidade (R Combatentes) Café,,38.8161263282115,-9.10324320385597,,,,
61_1392,,Bº Fraternidade (R Escola Lte 877 A),,38.8211530757031,-9.10212698146479,,,,
61_1393,,Bº Fraternidade (R Escola Lte 899),,38.8210375076177,-9.10209181773944,,,,
61_1394,,Bº Fraternidade (R Madalena Lte 52),,38.8175280914108,-9.10427915984752,,,,
61_1395,,Bº Fraternidade (R Madalena Lte 779),,38.8197753564994,-9.10385499814659,,,,
61_1399,,Bº Fraternidade (R Norte),,38.8133243262625,-9.10262709480273,,,,
61_1397,,Bº Fraternidade (R Principal) Poste Alta Tensão,,38.8176171126138,-9.10482594634838,,,,
61_1396,,Bº Fraternidade (R Principal Lte 107),,38.8198265940779,-9.10408464857243,,,,
61_1398,,Bº Fraternidade (R Santa Justa) (X) R Navegantes,,38.8133091113489,-9.10263056729986,,,,
61_2083,,Bº Girassol (R Associação) Terminal,,38.8083854993316,-9.2097545853751,,,,
61_2082,,Bº Girassol (R Associação) Terminal,,38.8084924057593,-9.20976511405942,,,,
61_2084,,Bº Girassol (R Aurélio Paz Reis 231),,38.8088088251196,-9.21032754708546,,,,
61_1939,,Bº Grilo (Estr Militar) (X) R Indústria,,38.8063583617196,-9.14438074190278,,,,
61_1402,,Bº Grilo (X) Bº Mira Loures,,38.8057421774238,-9.14437715549626,,,,
61_1401,,Bº Grilo (X) Bº Mira Loures,,38.8058421456786,-9.14424051091842,,,,
61_1405,,Bº Grilo (X) Bº S Benedito,,38.8040305750492,-9.14438108915079,,,,
61_1400,,Bº Grilo (X) Fte Bº S Benedito,,38.8040023330122,-9.1443453284332,,,,
61_1406,,Bº Loureiras (Qta S Pedro),,38.7987792808434,-9.1364615337528,,,,
61_1407,,Bº Loureiras (Viv J Alves Lte 19),,38.7990557356575,-9.13590694807034,,,,
61_1409,,Bº Maroitas (R Alf Vit Costa),,38.8296140768966,-9.10094472366402,,,,
61_1410,,Bº Maroitas (R Alf Vit Costa),,38.83158375334,-9.10109244698883,,,,
61_1408,,Bº Maroitas (R Alf Vit Costa) (X) Bº Vinha Grande,,38.8314535404127,-9.10124776979931,,,,
61_1334,,Bº Maroitas (R Alf Vit Costa) Inst Teixeira Duarte,,38.8293277001462,-9.10100187761468,,,,
61_1413,,Bº Mealheiro (R Alf Vit Costa) (X) R Regueira,,38.832506792901,-9.09922735304777,,,,
61_1416,,Bº Mealheiro (R Alf Vit Costa) Serralharia,,38.8324015002696,-9.09893708505371,,,,
61_1417,,Bº Miradouro (Av Forças Armadas) (X) R Liberdade,,38.8201096139168,-9.12103762412912,,,,
61_1418,,Bº Miradouro (Av Forças Armadas) (X) Unhos,,38.8193081273393,-9.11951427413904,,,,
61_1419,,Bº Miradouro (Av Forças Armadas) Socied Columbófil,,38.820597903283,-9.12167927329161,,,,
61_1420,,Bº Miradouro (Av Forças Armadas) Vivenda,,38.8188874898831,-9.11914147427227,,,,
61_1422,,Bº Miradouro (R José Gomes Ferreira 28),,38.8187451130256,-9.12056900136461,,,,
61_1421,,Bº Miradouro (R José Gomes Ferreira 86),,38.8187788648166,-9.12053398851182,,,,
61_1424,,Bº Miratejo (R Bartolomeu Dias) (X) R Liberdade,,38.817685902922,-9.12352603073507,,,,
61_1425,,Bº Miratejo (R Bartolomeu Dias) Praceta,,38.8179202105122,-9.12418451243043,,,,
61_1428,,Bº Miratejo (R José Gomes Ferreira) Fte Lt 12,,38.8177475643131,-9.12190319874288,,,,
61_1429,,Bº Miratejo (R José Gomes Ferreira) Vivenda,,38.8153732739448,-9.1218117578017,,,,
61_1427,,Bº Miratejo (R José Gomes Ferreira 62),,38.8176794839824,-9.12196861242818,,,,
61_2498,,Bº Monjões (R Gaspar Lopes),,38.8542790826823,-9.09072424431915,,,,
61_521,,Bº Novo Santo Eloy (Centro),,38.7740889629863,-9.21354401004189,,,,
61_620,,Bº Novo Santo Eloy (Centro),,38.7740182565937,-9.21344619067544,,,,
61_1437,,Bº Qta Caniços (R António Aleixo 2),,38.866680123898,-9.06226375361846,,,,
61_1436,,Bº Qta Caniços (R António Aleixo 7),,38.8668093418625,-9.06244461432281,,,,
61_1439,,Bº Qta Caniços (R Fernando Pessoa 25),,38.8665737997301,-9.06277187114423,,,,
61_1440,,Bº Qta Caniços (R Fernando Pessoa Fte 27),,38.8665875624575,-9.06279878908982,,,,
61_1441,,Bº Queimadas (Av Forças Armadas) (X) Bº Venceslau,,38.8145087696429,-9.11826101338878,,,,
61_1444,,Bº Queimadas (Av Forças Armadas) Centro Comercial,,38.8166945489332,-9.11853792747661,,,,
61_1443,,Bº Queimadas (Av Forças Armadas) Fte Café,,38.8171150942315,-9.11857803098546,,,,
61_1442,,Bº Queimadas (Av Forças Armadas) Mercado,,38.8148640906879,-9.11829071568264,,,,
61_1445,,Bº Queimadas (R Galvões) Mercado,,38.8147776194391,-9.118660820263,,,,
61_1446,,Bº Queimadas (R Galvões 3B),,38.8147855978638,-9.1188104840243,,,,
61_1448,,Bº Quintais (R Eduar Veiga Araujo) Fte Pq Infantil,,38.8567087615826,-9.07917136983534,,,,
61_1449,,Bº Quintais (R Eduar Veiga Araujo) Pq Infantil,,38.8567753411321,-9.079148232494,,,,
61_1450,,Bº S Francisco (Fábrica),,38.791529844963,-9.1366148938816,,,,
61_1451,,Bº S Francisco Lte 20,,38.7916913853364,-9.1365873518858,,,,
61_1453,,Bº S João (X) Rua D,,38.8009368329582,-9.11996915818501,,,,
61_1452,,Bº S João das Areias (Est Militar),,38.8009305766201,-9.11995093793515,,,,
61_80,,Bº S Jorge (Lgo Pôr Sol),,38.813287144477,-9.20357581056281,,,,
61_77,,Bº S Jorge (Lgo Pôr Sol),,38.8136464715723,-9.20334724285524,,,,
61_78,,Bº S Jorge (R Camilo Castelo Branco) Esc Primária,,38.8147377368165,-9.20236883963827,,,,
61_79,,Bº S Jorge (R Cesário Verde) (X) Esc Primária,,38.8142017736006,-9.20249525200839,,,,
61_1934,,Bº S José (R Gregório Júlio Conceição),,38.8064514458605,-9.13911949794175,,,,
61_1456,,Bº S José (R Gregório Júlio Conceição) (X) R 28 Ja,,38.8066552100785,-9.13948481853916,,,,
61_1455,,Bº S José (R Gregório Júlio Conceição Fte Lte 15),,38.8053859612594,-9.13764042998743,,,,
61_1940,,Bº S José (R Indústria),,38.8053322301828,-9.14245401690933,,,,
61_2175,,Bº S José (R Indústria Lte 99),,38.8053613345344,-9.14246713520288,,,,
61_1942,,Bº S José (R M Deolinda R G Ferreira) Casa Repouso,,38.8047149463973,-9.13458210584719,,,,
61_1928,,Bº S José (R M Deolinda R G Ferreira) Casa Repouso,,38.8047232474683,-9.1347017681422,,,,
61_1941,,Bº S José (R Sta Clara Lte 47),,38.8048206883432,-9.14054841629314,,,,
61_1935,,Bº S. José (R Gregório Júlio Conceição) (X) Urb No,,38.8056147620713,-9.13831124631882,,,,
61_2503,,Bº Salvação (R Olival Serra 71),,38.8571892318239,-9.08959801869496,,,,
61_2504,,Bº Salvação (R Olival Serra Fte 69),,38.8554331752941,-9.09004240849159,,,,
61_2499,,Bº Salvação (R Rainha Santa),,38.8552734558743,-9.08966454738642,,,,
61_2500,,Bº Salvação (R Rainha Santa 2),,38.8572604132748,-9.08928391772186,,,,
61_1458,,Bº Santiago (Fte Nicho Santiago Maior),,38.8045686970296,-9.12016674024661,,,,
61_1459,,Bº Santiago (Nicho) Santiago Maior,,38.804418013154,-9.12008756320135,,,,
61_610,,Bº Sete Castelos (Conservatório),,38.803095442969,-9.16313869441768,,,,
61_568,,Bº Sete Castelos (Esc Pedro Alexandrino),,38.8043583447465,-9.16440721091554,,,,
61_2398,,Bº Sete Castelos (R José Fontana) Conservatório,,38.8033800841516,-9.16250421528117,,,,
61_565,,Bº Sete Castelos (R José Fontana 10),,38.8043255860469,-9.16222778691346,,,,
61_82,,Bº Sete Castelos (R Luís Camões) Conservatório,,38.8030911255618,-9.16328930706102,,,,
61_84,,Bº Sete Castelos (R Padre José Anchieta 18),,38.8021629676114,-9.16168870601272,,,,
61_2475,,Bº Sete Castelos (R Padre José Anchieta 2),,38.8014660796521,-9.16147165530189,,,,
61_2476,,Bº Sete Castelos (R S Jose 7),,38.8046324689067,-9.16274276082796,,,,
61_1462,,Bº Sousas (Av 25 Abril) Cabine EDP,,38.809426172012,-9.13683195200479,,,,
61_1463,,Bº Sousas (Av 25 Abril) Vivenda,,38.8093910384722,-9.13654757997777,,,,
61_87,,Bº Sta Maria (Ponte),,38.7764468840793,-9.19803951109172,,,,
61_89,,Bº Sta Maria (União Desportiva),,38.7755726356262,-9.19426978298329,,,,
61_91,,Bº Sta Maria (União Desportiva),,38.7752066771904,-9.1945272866508,,,,
61_85,,Bº Sta Maria 601 (Ponte),,38.7764982972483,-9.19810942400956,,,,
61_86,,Bº Sta Maria 80,,38.7766091683562,-9.19277651636111,,,,
61_603,,Bº Sta Maria 81,,38.7766012884882,-9.19280191731407,,,,
61_1466,,Bº Sto António,,38.7961454151388,-9.11920323069349,,,,
61_1465,,Bº Sto António (Armazéns),,38.7961475384355,-9.11921347800754,,,,
61_2268,,Bº Sto António (Cooperativa 26 Abril),,38.7956226700096,-9.12264200456946,,,,
61_1464,,Bº Sto António (Passagem Superior CRIL),,38.7980384317236,-9.12329129867152,,,,
61_2267,,Bº Sto António (R Associação Moradores 25),,38.7950290710588,-9.12350843917566,,,,
61_2265,,Bº Sto António (R B) Centro Social,,38.7986467344447,-9.12278642623418,,,,
61_2269,,Bº Sto António (R B) IC17,,38.7968887960613,-9.12299144302126,,,,
61_2266,,Bº Sto António (R S João 8),,38.7959599257577,-9.12337149648429,,,,
61_1467,,Bº Sto António (X) Rua D,,38.7980347891116,-9.12328680432427,,,,
61_781,,Bº Tazim (R Gonçalo Velho Cabral) (X) (Bº Olival Q,,38.853135855691,-9.1323717367332,,,,
61_780,,Bº Tazim (R Gonçalo Velho Cabral) (X) (Bº Olival Q,,38.8531312549329,-9.13227705128402,,,,
61_779,,Bº Tazim (R Gonçalo Velho Cabral) (X) (R Gonçalves,,38.8531949651916,-9.13355682324226,,,,
61_778,,Bº Tazim (R Gonçalo Velho Cabral) (X) (R Gonçalves,,38.853194965267,-9.13355682324121,,,,
61_776,,Bº Tazim (R Ribeirinha),,38.8545866954554,-9.13525132547304,,,,
61_777,,Bº Tazim (R Ribeirinha),,38.8547882311469,-9.13522395966301,,,,
61_1000,,Bº Tazim (R Tazim),,38.8551857129945,-9.13165319063294,,,,
61_1008,,Bº Tazim (R Tazim),,38.855285952151,-9.13165079700129,,,,
61_1468,,Bobadela (Bº Bela Vista) R Norte (X) R Central,,38.8102516263299,-9.1037667836644,,,,
61_1469,,Bobadela (Bº Bela Vista) R Norte Lte 75,,38.8106394599986,-9.10371740315122,,,,
61_1470,,Bobadela (Lgo Inf D Henrique),,38.8100822719624,-9.0999657090662,,,,
61_1708,,Bobadela (R Amílcar Cabral) Pastelaria,,38.8072222969009,-9.10124723814917,,,,
61_1684,,Bobadela (R Ant Ferreira 21),,38.8097800311704,-9.09909522357646,,,,
61_1703,,Bobadela (R Ant Ferreira 3),,38.8077717382655,-9.09914665190352,,,,
61_2375,,Bobadela (R Bento Gonçalves 1),,38.8101498191626,-9.1020470717685,,,,
61_1472,,Bobadela (R Central) Viad AE - 1,,38.810520573825,-9.10239829307619,,,,
61_1474,,Bobadela (R D Af Henriques) (X) Bº Figueira,,38.8134063503497,-9.10034655930124,,,,
61_1473,,Bobadela (R D Af Henriques) (X) Bº Figueira,,38.8143797458533,-9.10033710347978,,,,
61_1475,,Bobadela (R Hor Costa Moreira) Posto Médico,,38.8105373908817,-9.10067012842654,,,,
61_2176,,Bobadela (R Jarros),,38.8001236793861,-9.10142385703406,,,,
61_1476,,Bobadela (R Luís Camões 13),,38.8073776880349,-9.09987129841051,,,,
61_1477,,Bobadela (R Mártires Tarrafal 43),,38.8088159207116,-9.10212043679296,,,,
61_1705,,Bobadela (R Salgueiro Maia) B Pretrogal,,38.8038243481803,-9.10185738194738,,,,
61_1471,,Bobadela (R Salgueiro Maia) Bº Manuel Diniz,,38.8057943200025,-9.1013363140017,,,,
61_2177,,Bobadela (R Salgueiro Maia) Qta Parreirinha,,38.8011383742434,-9.10229557047714,,,,
61_1541,,Bobadela EN 10 (Centro Comercial),,38.8077241413466,-9.09547638618345,,,,
61_787,,Bom Sucesso (Lgo Catarina Eufémia),,38.9033480250295,-9.04707806057846,,,,
61_782,,Bom Sucesso (Lgo Catarina Eufémia 51),,38.9033314641918,-9.0472766294189,,,,
61_783,,Bom Sucesso (R 1º Maio 40),,38.9052357568151,-9.04664114979348,,,,
61_785,,Bom Sucesso (R 1º Maio 6),,38.9034373870004,-9.04884268552804,,,,
61_895,,Bom Sucesso (R Alves Redol) (X),,38.9031017630452,-9.04524446511726,,,,
61_788,,Bom Sucesso (R Combatentes) (X),,38.9032613439838,-9.0438672194908,,,,
61_794,,Bom Sucesso (R Liberdade 1),,38.9031514379358,-9.04842096412184,,,,
61_789,,Bom Sucesso (R Liberdade 27),,38.9042308493261,-9.04719329578976,,,,
61_791,,Bom Sucesso (R Liberdade 43),,38.9049919488471,-9.04607195337792,,,,
61_1479,,Bragadas (R 1 Maio Fte 1),,38.8606767799067,-9.08414090373134,,,,
61_1970,,Bragadas (R Catarina Eufémia) (X) R 1º Maio 1,,38.8607418524781,-9.08388372850548,,,,
61_1163,,Bragadas (R Ché Guevarra Lte 22),,38.8621845981011,-9.08315842179171,,,,
61_2501,,Bragadas (R Lenine),,38.8601782909491,-9.08618663209334,,,,
61_1478,,Bragadas (R Lenine) Fte Igreja,,38.8621852855456,-9.08526595821309,,,,
61_2502,,Bragadas (R Lenine 13),,38.8610876141616,-9.0858600527175,,,,
61_790,,Bucelas,,38.9008085311799,-9.11797135898959,,,,
61_795,,Bucelas,,38.9009163034039,-9.11839192926796,,,,
61_796,,Bucelas,,38.9009110948749,-9.11837511301423,,,,
61_812,,Bucelas,,38.9008736504176,-9.11828656432624,,,,
61_866,,Bucelas,,38.9005176062699,-9.11853709703239,,,,
61_798,,Bucelas (Casal Roque),,38.9012961074224,-9.11284759295299,,,,
61_797,,Bucelas (Casal Roque),,38.9011693280558,-9.11153988553699,,,,
61_800,,Bucelas (CasarÆo),,38.9037245769534,-9.12727386764502,,,,
61_799,,Bucelas (Casarão),,38.9035267082979,-9.12619928294808,,,,
61_1960,,Bucelas (Centro Saúde),,38.9012899867929,-9.11588387994116,,,,
61_1959,,Bucelas (Centro Saúde),,38.9012968662277,-9.11573141592257,,,,
61_805,,Bucelas (Chafariz),,38.8988013574316,-9.11898433652499,,,,
61_802,,Bucelas (Chafariz),,38.8985395207178,-9.11915754988526,,,,
61_809,,Bucelas (Qta Boição),,38.9062091657291,-9.12257973004974,,,,
61_808,,Bucelas (Qta Boição),,38.9062848076854,-9.1225988168167,,,,
61_807,,Bucelas (X) Sobral,,38.9028860004151,-9.12139082420986,,,,
61_806,,Bucelas (X) Sobral,,38.9028575000108,-9.12137619722502,,,,
61_810,,Bucelas (X) Sobral,,38.9026468791513,-9.12153819722994,,,,
61_811,,Bucelas (X) Sobral,,38.9026313230893,-9.12171391392778,,,,
61_823,,Cabe‡o Montachique (Casal Andrade),,38.8970656500379,-9.18661053391558,,,,
61_1017,,Cabe‡o Montachique (Casal Andrade),,38.8971828372182,-9.1860699480922,,,,
61_817,,Cabe‡o Montachique (Chafariz),,38.9002270575414,-9.18891832398095,,,,
61_820,,Cabe‡o Montachique (Circ Manuten‡Æo),,38.9006660619503,-9.18135571129154,,,,
61_816,,Cabe‡o Montachique (Estr Vale SÆo GiÆo),,38.9082949059075,-9.19699071073977,,,,
61_822,,Cabe‡o Montachique (R 16 Maio 15),,38.9050367748874,-9.19077257852338,,,,
61_825,,Cabe‡o Montachique (X) Lousa,,38.9033498622848,-9.1899350225336,,,,
61_1482,,Cabeço Aguieira,,38.8309288817053,-9.12831862585074,,,,
61_1481,,Cabeço Aguieira,,38.8309848252818,-9.12831589542079,,,,
61_1483,,Cabeço Aguieira (Av Forças Armadas) Qta Granja,,38.8256848705559,-9.1280589636649,,,,
61_1484,,Cabeço Aguieira (Av Forças Armadas) Qta S Sebastiã,,38.8255845000988,-9.12803276979831,,,,
61_814,,Cabeço Montachique (Casal Andrade),,38.8968313995439,-9.18598198595379,,,,
61_1058,,Cabeço Montachique (Casal Andrade),,38.8974501803675,-9.18574632915067,,,,
61_819,,Cabeço Montachique (Circ Manutenção),,38.9006232587759,-9.1814207043656,,,,
61_815,,Cabeço Montachique (Estr Vale São Gião),,38.9087023044902,-9.19730114915652,,,,
61_821,,Cabeço Montachique (R 16 Maio 21),,38.9052054545001,-9.19086637966561,,,,
61_818,,Cabeço Montachique (R Dr Catanho de Menezes 6),,38.9011703187538,-9.18944753689015,,,,
61_824,,Cabeço Montachique (X) Lousa,,38.9036043543989,-9.18988443017773,,,,
61_2326,,Cabo Vialonga (Av Carlos Arrojado) Supermercado,,38.8780000059184,-9.06868669547315,,,,
61_2328,,Cabo Vialonga (Av Carlos Arrojado) Supermercado,,38.8780270808861,-9.06869084717707,,,,
61_828,,Cabo Vialonga (Bº Olival Santo),,38.8797122704045,-9.06641576049256,,,,
61_827,,Cabo Vialonga (Bº Olival Santo),,38.8794968432017,-9.06625895735453,,,,
61_829,,Cabo Vialonga (Chafariz),,38.8771844608914,-9.06953873860753,,,,
61_830,,Cabo Vialonga (Esc Primária),,38.8762013328367,-9.07206744961132,,,,
61_835,,Cabo Vialonga (R 1º Maio 11),,38.8780996981413,-9.06718116460382,,,,
61_833,,Cabo Vialonga (R 1º Maio 123),,38.8769969452479,-9.06996305256093,,,,
61_826,,Cabo Vialonga (R 1º Maio 48),,38.8760606206147,-9.0724333179969,,,,
61_832,,Cabo Vialonga (R 1º Maio15),,38.8780236343291,-9.06732612245327,,,,
61_775,,Cabo Vialonga (R Olival Santo) (X) (Bº Sol Nascent,,38.8806664163492,-9.06713879908654,,,,
61_774,,Cabo Vialonga (R Olival Santo) (X) (Bº Sol Nascent,,38.880264647521,-9.06683170995556,,,,
61_92,,Cacém (Av Bons Amigos) Escola,,38.7714997294377,-9.29218201792551,,,,
61_93,,Cacém (Av Bons Amigos Fte 46),,38.769863801312,-9.29451967849648,,,,
61_95,,Cacém (Av Bons Amigos Fte 48),,38.7694750234896,-9.2953605176717,,,,
61_96,,Cacém (R Elias Garcia) Estação CP,,38.7655104774678,-9.29831878012572,,,,
61_2250,,Cacém (R Elias Garcia) Estação CP,,38.7665729767673,-9.29813505289989,,,,
61_2105,,Calçada Carriche (Restaurante),,38.7778887492323,-9.16429461279002,,,,
61_1486,,Camarate (Bº Santiago),,38.8057847113786,-9.12090103356175,,,,
61_1487,,Camarate (Bº Santiago) (X) R Gen Humb Delgado,,38.8025826620469,-9.12076805672124,,,,
61_1461,,Camarate (Bº Santiago) (X) R Gen Humb Delgado,,38.802503571913,-9.12094326333391,,,,
61_1489,,Camarate (Bº Santiago) R Liberdade 57A,,38.8043605091211,-9.12084359630429,,,,
61_1490,,Camarate (Bº Santiago) Residência,,38.8029410959759,-9.12157165785807,,,,
61_2428,,Camarate (Cpo Rio),,38.8012539790392,-9.12236834775556,,,,
61_2427,,Camarate (Cpo Rio),,38.8013656493633,-9.12242836571225,,,,
61_1493,,Camarate (Esc Preparatória),,38.8049246914172,-9.13114785680528,,,,
61_1494,,Camarate (Est Camarate) Esc Primária,,38.7999422921767,-9.13376763366441,,,,
61_1495,,Camarate (Estação CTT),,38.8022910233738,-9.12774351308885,,,,
61_1498,,Camarate (Fte Esc Preparatória),,38.8049612797068,-9.13165681401907,,,,
61_1496,,Camarate (Fte Esc Primária),,38.7997654961438,-9.13419707708375,,,,
61_1499,,Camarate (Igreja) R Avelino Salgado,,38.8014022791157,-9.12982738424768,,,,
61_1500,,Camarate (Jardim Chafariz),,38.8039229497825,-9.12969963000834,,,,
61_1945,,Camarate (Jardim),,38.8022749272726,-9.12771989506306,,,,
61_1491,,Camarate (Lgo Eng Arm Band Vaz),,38.802017530035,-9.12739047319594,,,,
61_1497,,Camarate (Lgo Eng Arm Band Vaz),,38.8020007676106,-9.12729363288094,,,,
61_1944,,Camarate (Qta Encarnação 3A),,38.8038653438641,-9.12961129931312,,,,
61_1824,,Camarate (Qta Sta Rosa),,38.7955699758348,-9.13698741240168,,,,
61_1823,,Camarate (Qta Sta Rosa),,38.795525839884,-9.13699434502634,,,,
61_2494,,Camarate (R Aquilino Ribeiro),,38.8033609676093,-9.12458949357947,,,,
61_1485,,Camarate (R Avelino Salgado Oliveira) Banco,,38.8012805184389,-9.13026470574906,,,,
61_2495,,Camarate (R Ivone Silva 1),,38.8036999378315,-9.12347613981192,,,,
61_2493,,Camarate (R José Francisco Raposo),,38.8035098163069,-9.12824140710522,,,,
61_2496,,Camarate (R Natália Correia) Pq Desportivo,,38.8052429293064,-9.12607468614041,,,,
61_2497,,Camarate (R Noruega),,38.8049318752766,-9.12921288152192,,,,
61_99,,Camarões,,38.8213647375627,-9.23531598410404,,,,
61_106,,Camarões,,38.8210391664364,-9.23528985467561,,,,
61_97,,Camarões (Alto Camarões),,38.8234446212741,-9.23579823922711,,,,
61_98,,Camarões (Alto Camarões),,38.8237263953514,-9.23612041045648,,,,
61_54,,Camarões (Café),,38.8264284205814,-9.24604905265762,,,,
61_56,,Camarões (Café),,38.8262770193816,-9.24571892935642,,,,
61_100,,Camarões (Centro),,38.8240803485896,-9.23836645922631,,,,
61_101,,Camarões (Centro),,38.8244899461554,-9.23842155525076,,,,
61_103,,Camarões (R Progresso) Pinhal,,38.8193933210761,-9.23402562973798,,,,
61_102,,Camarões (R Progresso) Pinhal,,38.8191989498483,-9.23376559898187,,,,
61_104,,Camarões (X) Bairro Ginjal,,38.8244122829498,-9.24351505390834,,,,
61_105,,Camarões (X) Bairro Ginjal,,38.8247429329286,-9.24380886410672,,,,
61_108,,Camarões (X) R Bom Pastor,,38.8244560761348,-9.2414280743231,,,,
61_107,,Camarões (X) R Bom Pastor,,38.8244230210243,-9.24102532003112,,,,
61_839,,Camondes,,38.9770062842821,-9.14456666291712,,,,
61_838,,Camondes,,38.9769871635313,-9.14464858955635,,,,
61_836,,Camondes (Esc),,38.9765330422542,-9.14775769343809,,,,
61_837,,Camondes (Esc),,38.9765304462168,-9.14774891215839,,,,
61_1534,,Campo do Rio (Fábrica),,38.801183194879,-9.12230916570183,,,,
61_1533,,Campo do Rio (Quiosque),,38.8017482058405,-9.12209534328892,,,,
61_859,,Campo Grande,,38.8174911765586,-9.09964840774985,,,,
61_1532,,Campo Rio,,38.8013677515743,-9.12242938209786,,,,
61_2358,,Caneças (Cemitério),,38.8126865156783,-9.23432670968698,,,,
61_133,,Caneças (EN 250) Casa Cultura,,38.812589364908,-9.22727733468351,,,,
61_111,,Caneças (EN 250) Casal Sinais (Supermercado),,38.810942704799,-9.23142140331642,,,,
61_112,,Caneças (EN 250) Casal Sinais (Supermercado),,38.8110345404419,-9.23131220237766,,,,
61_114,,Caneças (EN 250) Est Serviço,,38.8102456385278,-9.23428668727966,,,,
61_113,,Caneças (EN 250) Est Serviço,,38.8102952028878,-9.2339865367444,,,,
61_119,,Caneças (EN 250) Fábrica,,38.8098176514982,-9.23738316460337,,,,
61_134,,Caneças (EN 250) Fte Casa Cultura,,38.8125662909491,-9.22752328477876,,,,
61_116,,Caneças (EN 250) Olival Santíssimo,,38.8082301373168,-9.23961571699451,,,,
61_115,,Caneças (EN 250) Olival Santíssimo,,38.8081051543118,-9.23971853754605,,,,
61_300,,Caneças (Esc Secundária),,38.80972887569,-9.23324357522753,,,,
61_299,,Caneças (Esc Secundária),,38.8099019867058,-9.23328560791896,,,,
61_1345,,Caneças (Esc Secundária),,38.8096968500414,-9.2329809881494,,,,
61_1797,,Caneças (Esc Secundária),,38.8096926232577,-9.23308948031502,,,,
61_1768,,Caneças (Esc Secundária),,38.809809488666,-9.23307321466831,,,,
61_125,,Caneças (Fonte Castanheiros),,38.8166243853806,-9.22811657498639,,,,
61_124,,Caneças (Fonte Castanheiros),,38.8163788562172,-9.22847068373165,,,,
61_126,,Caneças (Fonte Castanheiros) Largo,,38.81476653216,-9.22727741519957,,,,
61_273,,Caneças (Lgo Dr Manuel D'Arriaga),,38.8129962712588,-9.2264025732105,,,,
61_110,,Caneças (Lgo Dr Manuel D'Arriaga) Jardim,,38.8128193292779,-9.22693085980139,,,,
61_135,,Caneças (Lgo Vieira Caldas),,38.8129402906528,-9.22842797498187,,,,
61_137,,Caneças (Lgo Vieira Caldas) Escola,,38.8131770803146,-9.22886256321348,,,,
61_138,,Caneças (Obra Padre Abel),,38.813334644028,-9.22845385595281,,,,
61_2157,,Caneças (R Aquilino Ribeiro) Parque Infantil,,38.8076376693434,-9.22922856645806,,,,
61_2195,,Caneças (R Armando Catita Bernardino),,38.81557898016,-9.22612978745197,,,,
61_2155,,Caneças (R Armindo Simões Serrão) Mercado,,38.8115196727478,-9.22420647141386,,,,
61_139,,Caneças (R Coronel Braz Oliveira 15 A),,38.8119540763654,-9.22699359379955,,,,
61_140,,Caneças (R Coronel Braz Oliveira 15),,38.8117781592839,-9.22697938742786,,,,
61_2156,,Caneças (R Ferreira Castro 5),,38.806456363173,-9.22805848541486,,,,
61_141,,Caneças (R Fonte Passarinhos 21),,38.8178224390243,-9.22574281266378,,,,
61_142,,Caneças (R Fonte Passarinhos Fte 21),,38.8178934679648,-9.22562222118833,,,,
61_109,,Caneças (R Luís Camões) (X) R Mª Ant S Rebelo,,38.8136084656433,-9.21262619145351,,,,
61_128,,Caneças (R Luís Camões 44) Est Serviço,,38.8135404065316,-9.2123117995366,,,,
61_453,,Caneças (R Major Rosa Bastos) Fábrica,,38.8098010526841,-9.23727442185875,,,,
61_143,,Caneças (R Pinhal Verde 30),,38.8185990034126,-9.22998605875975,,,,
61_144,,Caneças (R Pinhal Verde Fte 30),,38.8187462769858,-9.23033769554551,,,,
61_148,,Caneças (R República) (X) Lugar De Além,,38.8141840359851,-9.2211301590097,,,,
61_298,,Caneças (R República) Jardim,,38.8129600374729,-9.22622850259747,,,,
61_145,,Caneças (R República 125) Quiosque,,38.8132886603143,-9.2247371531094,,,,
61_146,,Caneças (R República 4),,38.8141068993243,-9.21454179683064,,,,
61_147,,Caneças (R República 40),,38.8150997999292,-9.21845853373101,,,,
61_149,,Caneças (R República 53),,38.8149230170752,-9.21900810056832,,,,
61_150,,Caneças (R República 7),,38.8140760635956,-9.21444060674148,,,,
61_151,,Caneças (R República 79),,38.814098189246,-9.22160712853646,,,,
61_2158,,Caneças (R Vitor Hugo) (X) R Salvação,,38.8085307677571,-9.23058511940998,,,,
61_2457,,Caneças Jardim,,38.8128956638408,-9.22639692839076,,,,
61_842,,Carvalhal (Centro),,38.943071599607,-9.14566586203925,,,,
61_843,,Carvalhal (Centro),,38.9430779742371,-9.14567194587229,,,,
61_845,,Carvalhal (Chafariz),,38.9412633096166,-9.1442057041471,,,,
61_844,,Carvalhal (Chafariz),,38.9412422440139,-9.14418770843008,,,,
61_851,,Casainhos (R 1º Maio 20),,38.8824658356278,-9.1686728766266,,,,
61_848,,Casainhos (R 25 Abril) Cpo Futebol,,38.8831788729398,-9.17037198205216,,,,
61_849,,Casainhos (R 25 Abril 25),,38.8831630423677,-9.17030986864453,,,,
61_850,,Casainhos (R 25 Abril 5),,38.8824057793577,-9.16907776402391,,,,
61_853,,Casainhos (R Catarina Euf‚mia 1),,38.8819887990767,-9.1677550000027,,,,
61_854,,Casainhos (R General Humberto Delgado 1),,38.8814700923492,-9.16617257209592,,,,
61_852,,Casainhos (R João Simões Castelo 26),,38.8826304571978,-9.1674109689328,,,,
61_847,,Casainhos (R Luis Camäes Lte 3),,38.8814511566856,-9.16378079602352,,,,
61_855,,Casainhos (R Luís Camões 44),,38.8815044520294,-9.16577841945804,,,,
61_846,,Casainhos (R Luis Camões Lte 3),,38.8814493826603,-9.16357982563788,,,,
61_2215,,Casal Apréstimos (R 4 Outubro) Externato,,38.8088078082339,-9.18878257081394,,,,
61_2217,,Casal Apréstimos (R 4 Outubro) Externato,,38.8088087890253,-9.18877333261196,,,,
61_2218,,Casal Apréstimos (R Carochia 195),,38.8093808322156,-9.19047075372324,,,,
61_2214,,Casal Apréstimos (R Carochia Fte 118),,38.8098096860902,-9.19061897738217,,,,
61_1656,,Casal Apréstimos (R Nova) Lar,,38.8083108332225,-9.18863834041218,,,,
61_2216,,Casal Apréstimos (R Nova 13) Lar,,38.8082515533926,-9.18899994080107,,,,
61_762,,Casal Areias (R Principal) (X) (R Jardim),,38.89133534686,-9.05808972160083,,,,
61_2117,,Casal Areias (R Principal) Armazém,,38.891217109326,-9.05584417409563,,,,
61_2116,,Casal Areias (R Principal) Armazém,,38.8912174089946,-9.05584333890954,,,,
61_154,,Casal Bispo (Casal Abadeço),,38.8018085565483,-9.21752958088056,,,,
61_155,,Casal Bispo (Casal Abadeço) (X) R Laura Alves,,38.8016807791418,-9.2174830055377,,,,
61_2317,,Casal Bispo (R Damião Góis Lte 156),,38.8009932640074,-9.222202352144,,,,
61_156,,Casal Bispo (R Figueira),,38.7999738718241,-9.21963306280693,,,,
61_157,,Casal Bispo (R Figueira),,38.799510997115,-9.22011104738645,,,,
61_38,,Casal Bispo (R Gen Humb Delgado 201),,38.8023419875755,-9.22205456141254,,,,
61_2319,,Casal Bispo (R Gen Humb Delgado Lte 181),,38.8010897473773,-9.22272156171494,,,,
61_64,,Casal Bispo (R Gen Humb Delgado Lte 196),,38.8023414641086,-9.22205487412496,,,,
61_1578,,Casal Bispo (R Padre Cruz) Campo Jogos,,38.8000157235941,-9.22125631128758,,,,
61_62,,Casal Bispo (R Padre Cruz 62),,38.8005315169203,-9.22222716255197,,,,
61_28,,Casal Bispo (R Padre Cruz Fte 62),,38.8006106683173,-9.22244157227961,,,,
61_2316,,Casal Bispo (R Padre Cruz Lte 124),,38.8006306164709,-9.22225228697255,,,,
61_2318,,Casal Bispo (R Vasco Gama Fte Lte 52),,38.8024251707471,-9.22143855396902,,,,
61_179,,Casal Cambra,,38.7964887643327,-9.22867995219415,,,,
61_63,,Casal Cambra (Av Angola 26 A),,38.798251491525,-9.22535529067734,,,,
61_61,,Casal Cambra (Av Angola 62),,38.7999631572022,-9.22620936078372,,,,
61_69,,Casal Cambra (Av Angola 73),,38.7999051161794,-9.22619017974736,,,,
61_46,,Casal Cambra (Av Angola Fte 102),,38.8030483343048,-9.22578078385831,,,,
61_83,,Casal Cambra (Av Angola Fte 26 A),,38.7982051640175,-9.22528987376046,,,,
61_177,,Casal Cambra (Av Brasil 76),,38.8025628864023,-9.23359176762917,,,,
61_165,,Casal Cambra (Av Brasil Fte 74A),,38.8025628864023,-9.23359176762917,,,,
61_159,,Casal Cambra (Av Cabo Verde 21 A),,38.804170730502,-9.22435490495523,,,,
61_39,,Casal Cambra (Av Cabo Verde 21 A),,38.8041751950493,-9.22436118140295,,,,
61_279,,Casal Cambra (Av Dinamarca) (X) R Amesterdão,,38.797918399648,-9.22982688060554,,,,
61_160,,Casal Cambra (Av Dinamarca 169),,38.804299996562,-9.22916956789374,,,,
61_158,,Casal Cambra (Av Inglaterra 31 B),,38.801979696558,-9.22546742259486,,,,
61_171,,Casal Cambra (Av Lisboa) (X) R Amesterdão,,38.7979895493294,-9.22855613102688,,,,
61_170,,Casal Cambra (Av Lisboa) Centro Saúde,,38.800281547695,-9.22850476437166,,,,
61_167,,Casal Cambra (Av Lisboa 116),,38.8062585060361,-9.22771514047314,,,,
61_169,,Casal Cambra (Av Lisboa 129),,38.8057571506338,-9.22784183386164,,,,
61_168,,Casal Cambra (Av Lisboa 80),,38.8017811366196,-9.22846154526179,,,,
61_166,,Casal Cambra (Av Moçambique) Jto Mercado,,38.8002981168239,-9.23338899460809,,,,
61_127,,Casal Cambra (Av S Tomé e Principe) (X) R D Duarte,,38.7978772651042,-9.22658055730784,,,,
61_129,,Casal Cambra (Av S Tomé e Principe 25),,38.7961442046724,-9.22531313551678,,,,
61_2174,,Casal Cambra (Centro Saúde) Terminal,,38.8004866718571,-9.22792410886584,,,,
61_173,,Casal Cambra (Esc Primária),,38.8025958368493,-9.237489698432,,,,
61_176,,Casal Cambra (Esc Primária),,38.8024756724842,-9.23726931535446,,,,
61_161,,Casal Cambra (Igreja),,38.8036796113164,-9.22837426662616,,,,
61_180,,Casal Cambra (Início Estr Sto Eloy),,38.7939526252848,-9.22922890994095,,,,
61_162,,Casal Cambra (R Dinamarca) (X) R Lagoa,,38.8000143580626,-9.22972419944649,,,,
61_163,,Casal Cambra (R Dinamarca) Banco,,38.8018552870007,-9.22969083295453,,,,
61_178,,Casal Cambra (R Grândola 5),,38.8033841785682,-9.23881650718761,,,,
61_175,,Casal Cambra (R Mercado),,38.8001981477711,-9.23339157318769,,,,
61_2163,,Casal Cambra (R Pedro Álvares Cabral),,38.7966438068346,-9.22353647819823,,,,
61_2162,,Casal Cambra (R Pedro Álvares Cabral 43),,38.7978604558577,-9.22580924084131,,,,
61_117,,Casal Cambra (R Sta Isabel) (X) R Pedro Alv Cabral,,38.798020952388,-9.22583096016806,,,,
61_164,,Casal Cambra (R Sta Marta 18),,38.7988040181385,-9.2323924674792,,,,
61_275,,Casal Cambra (R Sta Marta 22),,38.798828491641,-9.23299125282522,,,,
61_494,,Casal Cambra (Rua Grandola 10),,38.8030842845084,-9.23882479943812,,,,
61_183,,Casal Chapim (Av Liberdade) Esc Secundária,,38.8030777691466,-9.18360624176788,,,,
61_184,,Casal Chapim (Av Liberdade) Fte Esc Secundária,,38.8031350109034,-9.18361016865468,,,,
61_185,,Casal Chapim (Avenida da Liberdade Lte2),,38.8005748419091,-9.183659097327,,,,
61_186,,Casal Chapim (R Cristovão Colombo 2),,38.7997654205669,-9.18123277273565,,,,
61_187,,Casal Chapim (R Cristovão Colombo Fte 6),,38.7995880057125,-9.18101235983669,,,,
61_188,,Casal Chapim (R Tristão Vaz Teixeira Lte 10),,38.8001893805041,-9.18302463048649,,,,
61_856,,Casal Nobre,,38.8473945655567,-9.17607722870423,,,,
61_1173,,Casal Nobre,,38.8473373082827,-9.17559490523004,,,,
61_190,,Casal Novo,,38.8081977579177,-9.21938547231924,,,,
61_191,,Casal Novo (Esc Primária),,38.8088925088104,-9.2179089651172,,,,
61_1798,,Casal Novo (R Brasil) (X) R 1º Novembro,,38.8068555680205,-9.22673047103022,,,,
61_1815,,Casal Novo (R Brasil) (X) R Casal Novo,,38.8076483611258,-9.22179939653678,,,,
61_196,,Casal Novo (R Brasil) Fte Associação,,38.8081350242126,-9.21958909175616,,,,
61_1790,,Casal Novo (R Cesário Verde Lte 221),,38.8018260748465,-9.21295110912873,,,,
61_1351,,Casal Novo (R Cesário Verde Lte 259),,38.8035153201165,-9.21173246800864,,,,
61_1766,,Casal Novo (R Duarte Pacheco Fte Lte 954),,38.800088955159,-9.21537859425682,,,,
61_197,,Casal Novo (R Figueirinha) Jardim,,38.8038945257381,-9.21417328900771,,,,
61_578,,Casal Novo (R Figueirinha 744),,38.8049111441313,-9.21838222595999,,,,
61_242,,Casal Novo (R Figueirinha Fte Lte 660),,38.8042746226347,-9.21649000223504,,,,
61_2120,,Casal Novo (R Fontaínha Pias),,38.8102090184167,-9.22183813919828,,,,
61_1996,,Casal Novo (R Liberdade) (X) R José Viana,,38.805743485837,-9.21518235876933,,,,
61_2119,,Casal Novo (R Liberdade 13 A),,38.8073949886726,-9.21559761610011,,,,
61_1350,,Casal Novo (R Liberdade Lte 540),,38.804344664981,-9.21516266340804,,,,
61_201,,Casal Novo (R Mirante) (X) R Alexandre Herculano,,38.8101680489467,-9.21903868239192,,,,
61_1799,,Casal Novo (R S Miguel 176),,38.8068923901902,-9.22450446009404,,,,
61_1457,,Casal Novo (R Vasco Santana) Fte Posto EDP,,38.8030944713535,-9.21688407704643,,,,
61_193,,Casal Novo 1063,,38.8063803618861,-9.2197477658739,,,,
61_189,,Casal Novo 1063,,38.8062765007048,-9.21972864403574,,,,
61_192,,Casal Novo 739,,38.8045946445623,-9.21908502423926,,,,
61_194,,Casal Novo 739,,38.8046063002903,-9.21909379102888,,,,
61_204,,Casal Paradela (R 4 Outubro) (X) Externato,,38.8056959981383,-9.1750564670538,,,,
61_306,,Casal Paradela (R 4 Outubro) (X) R José P Lourenço,,38.8072443211434,-9.1708450973728,,,,
61_307,,Casal Paradela (R 4 Outubro) (X) R José P Lourenço,,38.807311778063,-9.17066619426893,,,,
61_202,,Casal Paradela (R Aug Dias Silva) Externato,,38.8063904149136,-9.17542166738647,,,,
61_205,,Casal Paradela (R Joaquim Augusto Dias),,38.8088965325137,-9.17702514402237,,,,
61_203,,Casal Paradela (R Mª Helena Vieira Silva Fte 217),,38.8070915035775,-9.17734253373779,,,,
61_208,,Casal Pelão (Café),,38.7815356824834,-9.25026291725543,,,,
61_207,,Casal Pelão (Café),,38.7814984340233,-9.2500833037926,,,,
61_984,,Casal Pelão (Queluz) (X),,38.7820250522411,-9.24734568787143,,,,
61_209,,Casal Pelão (X) A da Beja (Aqueduto Águas Livres),,38.7824820540919,-9.24579096704803,,,,
61_210,,Casal Pelão (X) Queluz,,38.782231677016,-9.24695425737187,,,,
61_212,,Casal Perdigueira (Fte Lte 79),,38.780243348632,-9.21631731882353,,,,
61_211,,Casal Perdigueira (Fte Lte 79),,38.7802704374286,-9.21634718011284,,,,
61_214,,Casal Perdigueira (X) Casalinho Azenha,,38.7787339262345,-9.21538639993066,,,,
61_213,,Casal Perdigueira 111,,38.7788522544261,-9.21541028738681,,,,
61_220,,Casal Previlégio (R M Craveiro Lopes) Cemitério,,38.7970666412106,-9.1660078720067,,,,
61_216,,Casal Previlégio (R M Craveiro Lopes) Esc Preparat,,38.7991167432343,-9.16579349732967,,,,
61_215,,Casal Previlégio (R M Craveiro Lopes) Esc Preparat,,38.7994932975955,-9.16569709778004,,,,
61_219,,Casal Previlégio (R M Craveiro Lopes) Fte Cemitéri,,38.7969448820597,-9.16599146868114,,,,
61_217,,Casal Previlégio (R M Craveiro Lopes) Fte Mercado,,38.8015735832346,-9.16505414536637,,,,
61_218,,Casal Previlégio (R M Craveiro Lopes) Mercado,,38.8015936557591,-9.16505256951318,,,,
61_223,,Casal Reis,,38.8162686694467,-9.18858498120079,,,,
61_224,,Casal Reis (X) Urb Jardim Amoreira,,38.8161366304408,-9.18804771532196,,,,
61_338,,Casal Segolim (Supermercado),,38.7916363709116,-9.2139229279045,,,,
61_237,,Casal Segolim (Supermercado),,38.7911108885316,-9.21427941750663,,,,
61_2456,,Casal Serra R J Isidro,,38.861864717736,-9.07826806006436,,,,
61_228,,Casal Silveira (Av Ary Santos) (X) R Eça Queiroz,,38.7935435476621,-9.21383242998916,,,,
61_431,,Casal Silveira (Av Ary Santos) (X) R Eça Queiróz,,38.7934344174382,-9.21366594372194,,,,
61_227,,Casal Silveira (Av Ary Santos 9 E),,38.7950497157639,-9.21440765741597,,,,
61_429,,Casal Silveira (Av Ary Santos Lte 36 B),,38.7951446898434,-9.21434743441683,,,,
61_229,,Casal Silveira (Av João Ant Carvalho),,38.7959858384918,-9.21647452471513,,,,
61_230,,Casal Silveira (Av João Ant Carvalho),,38.7959840074765,-9.21645477693239,,,,
61_2173,,Casal Silveira (R Gen Humb Delgado),,38.7967682582958,-9.22244973892012,,,,
61_231,,Casal Silveira (R Gen Humb Delgado),,38.7968201660724,-9.2226143288761,,,,
61_2164,,Casal Silveira (R Gen Humb Delgado 97),,38.796893314564,-9.22284626920919,,,,
61_2172,,Casal Silveira (R Gen Humb Delgado 97) Igreja,,38.7959210582542,-9.21970490984611,,,,
61_2165,,Casal Silveira (R Gen Humb Delgado Fte Lte 250),,38.7959781528075,-9.21988163335497,,,,
61_232,,Casal Silveira (R Padre Cruz) (X) R Miraflores,,38.7981813361329,-9.21851056151416,,,,
61_2171,,Casal Silveira (R S Cristovão) Escola,,38.7958002958438,-9.21802090287338,,,,
61_2166,,Casal Silveira (R S Cristovão 828),,38.7958357092525,-9.21782753686668,,,,
61_172,,Casal Silveira (R Sto Estevão) Chafariz,,38.7949023129802,-9.22235900298296,,,,
61_234,,Casal Silveira (R Sto Estevão 380),,38.7937164141346,-9.21965629035655,,,,
61_233,,Casal Silveira (R Sto Estevão 404),,38.7937134664464,-9.21973593644358,,,,
61_236,,Casal Silveira (X),,38.7925383549079,-9.2151866346207,,,,
61_238,,Casal Silveira (X) R 2 Abril,,38.7929807267708,-9.21682543847754,,,,
61_235,,Casal Silveira (X) R 2 Abril,,38.7930172184626,-9.21700731969774,,,,
61_240,,Casal Silveira (X) R Chafariz,,38.7947667734181,-9.22186644097344,,,,
61_241,,Casal Silveira (X) R Miraflores,,38.7979431697289,-9.21822478888454,,,,
61_245,,Casal Trigache (Av Liberdade) (X) R A C Oliveira,,38.8022720485189,-9.20711082704019,,,,
61_244,,Casal Trigache (Av Liberdade) (X) R Abel Manta,,38.8009883188933,-9.20551049464924,,,,
61_373,,Casal Trigache (Bº Queimadas) (X) R Fontainhas,,38.794884392481,-9.20473300823746,,,,
61_246,,Casal Trigache (Bº Queimadas) R Af L Vieira (Escol,,38.799374039444,-9.20753333820116,,,,
61_247,,Casal Trigache (Bº Queimadas) R Af L Vieira 100,,38.7971431456068,-9.205843538226,,,,
61_250,,Casal Trigache (Encosta Mourigo) (X) R A C Oliveir,,38.8021817581907,-9.2068771130656,,,,
61_249,,Casal Trigache (Encosta Mourigo) (X) R Abel Manta,,38.8005753563897,-9.20524570082178,,,,
61_2184,,Casalinho (Escola),,38.8734337098954,-9.09098398531431,,,,
61_2183,,Casalinho (Escola),,38.8733395423031,-9.09124669513554,,,,
61_743,,Casalinho (R Casalinho Lte 29),,38.8746850915808,-9.09097922396308,,,,
61_764,,Casalinho (R Casalinho Lte 43),,38.8750961027056,-9.09110252116191,,,,
61_765,,Casalinho (R Laura Alves Fte Lte 97),,38.8771853127022,-9.09250912278163,,,,
61_766,,Casalinho (R Laura Alves Lte 97),,38.8771880568404,-9.09250996566736,,,,
61_1513,,Catujal (Av Forças Armadas) (X) R Fonte,,38.8123971229079,-9.11882424448087,,,,
61_1514,,Catujal (Av Forças Armadas) (X) R Nova,,38.8109843859439,-9.11848592415995,,,,
61_1515,,Catujal (Av Forças Armadas) Café,,38.8130679331716,-9.11854379553009,,,,
61_1516,,Catujal (Av Forças Armadas) Vivenda,,38.8108349667557,-9.11817402239755,,,,
61_2372,,Catujal (R Bartolomeu Dias) (X) R Miguel Ângelo,,38.8204925158645,-9.12438534385343,,,,
61_2374,,Catujal (R Esperança) (X) Av Forças Armadas,,38.8200182241804,-9.1199526857769,,,,
61_1518,,Catujal (X) Av Forças Armadas (Oficina),,38.8105428527311,-9.11832971390256,,,,
61_1519,,Catujal (X) Av Forças Armadas (Quiosque),,38.8104662649118,-9.11823712593517,,,,
61_1147,,Centro Empresarial de Loures,,38.847055775045,-9.1718316502883,,,,
61_1018,,Centro Empresarial de Loures,,38.8470455804813,-9.17186953526466,,,,
61_861,,Chamboeira (R Rep£blica) (X) Rua Combatentes,,38.9092531966159,-9.17461148815827,,,,
61_871,,Chamboeira (R Rep£blica 103),,38.911246050133,-9.17635072275766,,,,
61_932,,Chamboeira (R Rep£blica 118),,38.9118956066132,-9.18162704160695,,,,
61_873,,Chamboeira (R Rep£blica 30),,38.9083049535541,-9.16243688189532,,,,
61_864,,Chamboeira (R Rep£blica 35),,38.9085789068008,-9.16556439715694,,,,
61_869,,Chamboeira (R Rep£blica 49),,38.9082978284574,-9.16890542887258,,,,
61_2485,,Chamboeira (R Rep£blica 8),,38.9088636595823,-9.15989476592082,,,,
61_874,,Chamboeira (R República) (X) (R Saudade),,38.9086030234814,-9.17548290306514,,,,
61_870,,Chamboeira (R República 103),,38.9111857029927,-9.17615743097206,,,,
61_931,,Chamboeira (R República 118),,38.9115376816223,-9.18256728057426,,,,
61_867,,Chamboeira (R República 30),,38.9082024002748,-9.16285506077178,,,,
61_863,,Chamboeira (R República 35),,38.9085971692402,-9.16585272292356,,,,
61_875,,Chamboeira (R República 45),,38.9083525478661,-9.16825724679926,,,,
61_1520,,Charneca (Cpo Amoreiras),,38.7872394689911,-9.14250502840096,,,,
61_1522,,Charneca (Igreja),,38.7834286102067,-9.14253620483456,,,,
61_1524,,Charneca (Lte 1),,38.7877077604877,-9.14114938123562,,,,
61_1525,,Charneca (Pavilhão Gimnodesportivo),,38.7836101320774,-9.14267261088568,,,,
61_1526,,Charneca (Snack Bar),,38.7878773788443,-9.14110548568496,,,,
61_1528,,Charneca (X) Azinhaga Reguengo,,38.7879432756049,-9.14579613857773,,,,
61_1529,,Charneca (X) Cpo Amoreiras,,38.7878585720027,-9.14616012555696,,,,
61_550,,Codivel (Qta Barruncho) (X) R 8 Junho,,38.7990071392435,-9.16897609731359,,,,
61_553,,Codivel (Qta Barruncho) (X) R 8 Junho,,38.7990903117655,-9.16902316708029,,,,
61_527,,Codivel (R Correia Garção Fte 9),,38.7992634137806,-9.17269826173988,,,,
61_556,,Codivel (R Correia Garção Fte 9),,38.7992471009972,-9.17249974938844,,,,
61_537,,Codivel (R Heróis Chaimite) CTT,,38.7974730561876,-9.16915472551676,,,,
61_560,,Codivel (R Heróis Chaimite) CTT,,38.7976795858309,-9.16909161375171,,,,
61_698,,Colinas Cruzeiro (Esc Ant Gedeão),,38.7897852356484,-9.19340322311175,,,,
61_301,,Colinas Cruzeiro (Rotunda) Av Magalhães Coutinho,,38.7909785275293,-9.19462169718666,,,,
61_1530,,Courela Foguete,,38.7948301923527,-9.11386680131064,,,,
61_1531,,Courela Foguete (Talho),,38.794827472072,-9.1134800445234,,,,
61_1535,,Cpo Rio (Quiosque),,38.8016832420805,-9.12219102996342,,,,
61_1536,,Cruz da Pedra,,38.8201335641592,-9.1474266522034,,,,
61_1537,,Cruz Pedra (Inst Barraqueiro),,38.8200403641199,-9.14763470959382,,,,
61_264,,Dona Maria (R Principal) Padaria,,38.8145626130995,-9.25464594598716,,,,
61_265,,Dona Maria (R Principal) Padaria,,38.8145832869164,-9.25467853204594,,,,
61_266,,Dona Maria (R Principal 104),,38.8127774001934,-9.2491844347821,,,,
61_267,,Dona Maria (R Principal 121),,38.8131742952054,-9.25170953220367,,,,
61_268,,Dona Maria (R Principal 146),,38.8133106968736,-9.25194805703225,,,,
61_270,,Dona Maria (R Principal 17) Igreja,,38.8159376077705,-9.25454122972693,,,,
61_281,,Dona Maria (R Principal 17) Igreja,,38.8159839330168,-9.25452878126714,,,,
61_282,,Dona Maria (R Principal 276),,38.8174700800023,-9.2537622289854,,,,
61_283,,Dona Maria (R Principal Fte 104),,38.8128615603805,-9.24960332696273,,,,
61_284,,Dona Maria (R Principal Fte 276),,38.8174510038886,-9.25348308781423,,,,
61_1580,,EM 507 (X) Bº Sto António,,38.7958750235942,-9.11720436653098,,,,
61_1581,,EM 507 (X) Bº Sto António (Supermercado),,38.7958038594469,-9.11676710005263,,,,
61_1558,,EN 10 (Armazéns),,38.8778602464726,-9.05194773876832,,,,
61_1538,,EN 10 (Bº Petrogal) 1 Portão,,38.8052225086977,-9.09623257756336,,,,
61_1539,,EN 10 (Bº Petrogal) 2 Portão,,38.801531585601,-9.09867406475689,,,,
61_1564,,EN 10 (Bº Petrogal) Móveis,,38.8056919289861,-9.0961132703482,,,,
61_1540,,EN 10 (Bº Petrogal) Viaduto,,38.7998061149725,-9.09868889656427,,,,
61_1565,,EN 10 (Centro Inspecção Periódicas),,38.8366897084105,-9.08337137977145,,,,
61_1542,,EN 10 (Covina) Centro Social,,38.8341522686793,-9.08478989865246,,,,
61_1548,,EN 10 (Fábrica),,38.8824400876953,-9.0499034762235,,,,
61_1549,,EN 10 (Fábrica),,38.8140168705113,-9.09181695741601,,,,
61_1555,,EN 10 (Fábrica),,38.8826232521931,-9.04981113194849,,,,
61_1545,,EN 10 (Fábrica),,38.833706746887,-9.08501439031646,,,,
61_1552,,EN 10 (Fte Fábrica),,38.8153568113771,-9.09171381746074,,,,
61_1988,,EN 10 (Fte Inst Energia Nuclear),,38.8102496502697,-9.09399219261353,,,,
61_1557,,EN 10 (Fte Pq Indústrial),,38.8087834024317,-9.0950471424569,,,,
61_1989,,EN 10 (Inst Energia Nuclear),,38.8108017064641,-9.09353647331982,,,,
61_1547,,EN 10 (Intermarché),,38.8499453952765,-9.07552986811801,,,,
61_900,,EN 10 (Miratejo),,38.8370978626824,-9.08311132489003,,,,
61_1551,,EN 10 (Stand),,38.8460794424018,-9.07767468795764,,,,
61_1234,,EN 10 (Verdelha Baixo),,38.8853274599822,-9.04865212814635,,,,
61_1229,,EN 10 (Verdelha Baixo),,38.8854150172219,-9.04852874912653,,,,
61_1560,,EN 10 (X) Bº Estacal Novo,,38.8308049793448,-9.08644797435852,,,,
61_1566,,EN 10 (X) Bº Estacal Novo (Armazém),,38.8302951398848,-9.08661757634432,,,,
61_1561,,EN 10 (X) Bº Funchal,,38.8506584864613,-9.0748537695234,,,,
61_909,,EN 115 (Armazéns),,38.8860553855607,-9.05555720299245,,,,
61_2185,,EN 115 (Armazéns),,38.8858153019614,-9.05589915634417,,,,
61_872,,EN 115 (Casal do Rosal),,38.861336607871,-9.11390089554829,,,,
61_831,,EN 115 (Fábrica),,38.8830072715086,-9.05966975564538,,,,
61_1253,,EN 115 (Fábrica),,38.8827943210446,-9.05991537243054,,,,
61_803,,EN 115 (Km 74),,38.8947325574877,-9.12122264061392,,,,
61_804,,EN 115 (Km 74),,38.8945995487699,-9.12140175096393,,,,
61_920,,EN 115 (Restaurante),,38.8745300503171,-9.13427616613724,,,,
61_919,,EN 115 (Restaurante),,38.875018422833,-9.1334523673974,,,,
61_921,,EN 115 (Rotunda),,38.8638080016196,-9.13298988257407,,,,
61_922,,EN 115 (Rotunda),,38.8644865593397,-9.13416932096256,,,,
61_924,,EN 115-5 (Bº Junqueira) (X),,38.860846020561,-9.11906920011909,,,,
61_923,,EN 115-5 (Pq Indústrial Arneiro),,38.8610168910891,-9.11834326541036,,,,
61_927,,EN 116 (Armazéns),,38.9171172688354,-9.22596977988417,,,,
61_926,,EN 116 (Armazéns),,38.9170086450691,-9.22572552275489,,,,
61_933,,EN 116 (Centro Inspecções),,38.9134950835688,-9.20158030378634,,,,
61_934,,EN 116 (Centro Inspecções),,38.9135169106379,-9.20161863208192,,,,
61_889,,EN 116 (Chasa),,38.891567986513,-9.04578692193968,,,,
61_936,,EN 116 (F brica),,38.9035703283712,-9.13232529936411,,,,
61_935,,EN 116 (Fábrica),,38.903468850489,-9.13261346825524,,,,
61_938,,EN 116 (Qta Laranjeiras),,38.9142123930237,-9.21161313997414,,,,
61_939,,EN 116 (Qta Laranjeiras),,38.9142455881975,-9.21189252612956,,,,
61_941,,EN 116 (Restaurante),,38.9033756436737,-9.13866622648482,,,,
61_940,,EN 116 (Restaurante),,38.903399085982,-9.13843683305311,,,,
61_929,,EN 116 (X) Casais Forno,,38.915224989831,-9.21745867856542,,,,
61_930,,EN 116 (X) Casais Forno,,38.9150955849684,-9.21785496408678,,,,
61_943,,EN 116 (X) Casais Serra,,38.9123208776923,-9.18705365250076,,,,
61_928,,EN 116 (X) Casais Serra,,38.9123729617177,-9.18683753434139,,,,
61_285,,EN 250 (Acesso Qta Rosa Bacará),,38.7882014912385,-9.24336867177177,,,,
61_1582,,EN 250 (Bº Sol Avesso),,38.8111526323878,-9.12758891667353,,,,
61_1583,,EN 250 (Cavalo Branco),,38.8088138827581,-9.11684664123272,,,,
61_288,,EN 250 (Fte Acesso Rosa Bacará),,38.7882639786435,-9.24347261363825,,,,
61_1588,,EN 250 (Metalização),,38.8089351113485,-9.11691030214788,,,,
61_1589,,EN 250 (Qta Aromas),,38.8111242518603,-9.12750216671227,,,,
61_1590,,EN 250 (Qta Quintinha),,38.8113618164084,-9.12293684765381,,,,
61_1591,,EN 250 (X) (Bº N Senhora Nazaré),,38.8112541183701,-9.12319589204576,,,,
61_290,,EN 250 (X) A Da Beja (Aqueduto Águas Livres),,38.7826234684647,-9.24529595146914,,,,
61_293,,EN 250 (X) Casal Cambra,,38.7961255768628,-9.241088068074,,,,
61_292,,EN 250 (X) Casal Cambra,,38.7963860567192,-9.24070649451056,,,,
61_1592,,EN 250 (X) Catujal,,38.8107437152719,-9.1189410899534,,,,
61_1593,,EN 250 (X) Catujal,,38.8107544100569,-9.1189497935667,,,,
61_289,,EN 250 (X) Dona Maria,,38.8066012203665,-9.24277726264611,,,,
61_287,,EN 250 (X) Dona Maria,,38.8065106741707,-9.24272016520248,,,,
61_294,,EN 250 (X) Dona Maria,,38.8060007728642,-9.24221496044194,,,,
61_295,,EN 250 (X) Dona Maria,,38.8060139479588,-9.24220813631676,,,,
61_286,,EN 250 (X) Estaleiro,,38.8016297906071,-9.23958018170805,,,,
61_291,,EN 250 (X) Estaleiro,,38.8014078729343,-9.23966783701544,,,,
61_296,,EN 250 (X) Serra Casal Cambra,,38.7925337243426,-9.24436398968803,,,,
61_1953,,EN 250 (X) Unhos,,38.8282331796727,-9.1383606778173,,,,
61_1596,,EN 250 (X) Unhos,,38.8280912045946,-9.13841283270314,,,,
61_1554,,Estr Alpriate (X),,38.8663612514827,-9.09577857020918,,,,
61_1997,,Estr Bragadas (Qta Turismo Rural),,38.8583462364323,-9.0784270532591,,,,
61_1998,,Estr Bragadas Lte 70,,38.8583534949412,-9.07844804769805,,,,
61_2114,,Estr Caniços (Armazém),,38.8747906660042,-9.06906554617318,,,,
61_2115,,Estr Caniços (Armazém),,38.8749524116674,-9.06908964289498,,,,
61_2186,,Estr Caniços (Casal),,38.8698759464116,-9.06508026559513,,,,
61_2181,,Estr Caniços (Casal),,38.8698876196828,-9.065135380809,,,,
61_1569,,Estr Militar (Bº Torrinha),,38.7876347801682,-9.15925692385371,,,,
61_1568,,Estr Militar (Bº Torrinha),,38.7880368178751,-9.15849595431182,,,,
61_2161,,Estr Militar (Piscina Municipal Ameixoeira),,38.7858130259917,-9.15966749168716,,,,
61_1571,,Estr Militar (X) Bº Torrinha,,38.7908480965413,-9.15723424909388,,,,
61_1937,,Estr Militar (X) R Camélias,,38.8087208148706,-9.14335308782978,,,,
61_1597,,Estr Prior Velho/Sacavém (Bº Sto António),,38.794119615076,-9.12315106474262,,,,
61_1598,,Estr Prior Velho/Sacavém (Fte Bº Sto António),,38.7944810130537,-9.1224419295287,,,,
61_840,,Estrada Alcobela 10,,38.9493057990616,-9.14758190278593,,,,
61_841,,Estrada Alcobela 11,,38.9496576050632,-9.14763993186488,,,,
61_768,,Estrada Alpriate (X),,38.8665686956658,-9.09600871999172,,,,
61_705,,Estrada Alpriate (X) (R Coronel Lobo Costa),,38.8669642977668,-9.09566009748356,,,,
61_704,,Estrada Alpriate (X) (R Coronel Lobo Costa),,38.8668413345626,-9.09587304307496,,,,
61_902,,Estrada Arcena (Alto Bom Sucesso),,38.9030042818319,-9.04938712051752,,,,
61_903,,Estrada Arcena (Lte 1A),,38.9030131400046,-9.04954594382722,,,,
61_904,,Estrada Caniços (Rotunda),,38.8708133764643,-9.06808173899694,,,,
61_905,,Estrada Caniços (Rotunda),,38.8705920026051,-9.06781363535558,,,,
61_907,,Estrada Caniços 24,,38.8678600172872,-9.06073682779101,,,,
61_906,,Estrada Caniços 30,,38.868114068023,-9.06108827467385,,,,
61_1190,,Estrada de Alcobela 22,,38.9462302234393,-9.14704348010063,,,,
61_1196,,Estrada de Alcobela 22,,38.9461887345217,-9.1470172531374,,,,
61_2391,,Estrada de Fanhäs (Matadouro),,38.8758840577979,-9.15216491975682,,,,
61_2390,,Estrada de Fanhões (Matadouro),,38.8759660423063,-9.15221227798286,,,,
61_2490,,Estrada Forte Ameixoeira (Pq Jogos),,38.79036582173,-9.15066465473144,,,,
61_2481,,Estrada Forte Ameixoeira (X) R Maluda,,38.790634733669,-9.15067175690359,,,,
61_1570,,Estrada Militar (X) Bº Torrinha Centro Social,,38.7906220695366,-9.15739383758904,,,,
61_316,,Estrada Paiã (Esc Primária),,38.778533233712,-9.19619113639772,,,,
61_484,,Estrada Paiã (Est Serviço),,38.7775773812778,-9.2019837640191,,,,
61_483,,Estrada Paiã (Est Serviço),,38.7775699595068,-9.20200629636609,,,,
61_317,,Estrada Paiã (Fte Esc Primária),,38.7784347931287,-9.19641148827812,,,,
61_630,,Estrada Paiã (X),,38.776189259678,-9.20533046267416,,,,
61_619,,Estrada Paiã 1 (X),,38.7765061978689,-9.20490569004411,,,,
61_304,,Estrada Paradela (R Casal Granja 26),,38.8036961614101,-9.16618808141021,,,,
61_305,,Estrada Paradela (R Casal Granja 27 A),,38.803541957097,-9.16609390644446,,,,
61_308,,Estrada Parque (Fte Qta Lago) Fte Canil,,38.8250537304481,-9.2630138002028,,,,
61_309,,Estrada Parque (Qta Lago) Canil,,38.8252115351534,-9.2632781436164,,,,
61_311,,Estrada Parque (Vivenda),,38.8217820350089,-9.25640284800516,,,,
61_310,,Estrada Parque (Vivenda),,38.8217548529531,-9.25631595319001,,,,
61_312,,Estrada Parque (X) Aruil,,38.8197919416046,-9.25288593337963,,,,
61_313,,Estrada Parque (X) Aruil,,38.8200066923421,-9.25327328499774,,,,
61_2466,,Estrada Pinteus (Grupo Empresarial),,38.8618794998634,-9.15151348428388,,,,
61_2467,,Estrada Pinteus (Grupo Empresarial),,38.8629943233529,-9.15202094490125,,,,
61_646,,Estrada Vale Nogueira 13,,38.827005897922,-9.22492176255326,,,,
61_645,,Estrada Vale Nogueira Fte 13,,38.8271216729914,-9.22504026635997,,,,
61_1118,,Estrada Zambujal (Rotunda),,38.861773470249,-9.12314301179458,,,,
61_769,,Estrada Zambujal (Rotunda),,38.8621114198676,-9.12320649974097,,,,
61_323,,Famões (Alto Famões),,38.7883561140936,-9.20924130097301,,,,
61_322,,Famões (Alto Famões),,38.7880814264562,-9.20929972159738,,,,
61_336,,Famões (Bº Comendadeiras) (X) R Faust Freitas,,38.7908047628906,-9.20442031575374,,,,
61_319,,Famões (Bº Comendadeiras) (X) R Faust Freitas,,38.7908672307695,-9.20403433190973,,,,
61_327,,Famões (Bº Milharada),,38.7838573455416,-9.20706085227439,,,,
61_328,,Famões (Bº Milharada 12),,38.783980663786,-9.20710596316418,,,,
61_334,,Famões (Bº Queimadas) (X) R Fontainhas,,38.7952799971284,-9.20480207698923,,,,
61_2169,,Famões (Casal Trigache) R Laura Aires Fte Lte 28,,38.8003910749632,-9.20819691532595,,,,
61_2228,,Famões (Casal Trigache) R Laura Aires Lte 28,,38.8006743469485,-9.20841464416322,,,,
61_2167,,Famões (Casal Trigache) R S Nicolau Fte Lte 39,,38.8003315289343,-9.20966075257234,,,,
61_2170,,Famões (Casal Trigache) R S Nicolau Lte 39,,38.8005944006577,-9.20941857909806,,,,
61_1952,,Famões (Casal Trigache) R Sto António 14,,38.7995997039422,-9.20957985484988,,,,
61_635,,Famões (Qta Dálias) (X) R Camilo Castelo Branco,,38.792403214439,-9.203582981808,,,,
61_329,,Famões (Qta Dálias) (X) R Camilo Castelo Branco,,38.792776575876,-9.20369404183403,,,,
61_331,,Famões (Qta Dálias) R M Gomes Costa 4,,38.7909548040945,-9.20159263550112,,,,
61_320,,Famões (Qta Dálias) R M Gomes Costa Fte 4,,38.7909841774173,-9.20237541955445,,,,
61_1076,,Famões (R 18 Maio 37),,38.7994866740434,-9.20438525363724,,,,
61_918,,Famões (R 18 Maio 44),,38.7991643473955,-9.20413028733852,,,,
61_326,,Famões (R Afonso Lopes Vieira) Escola,,38.799367862908,-9.20752908361026,,,,
61_1162,,Famões (R Afonso Lopes Vieira 31),,38.7973666866484,-9.20619563705374,,,,
61_252,,Famões (R Cidade Amarante),,38.7974369674877,-9.21611657565031,,,,
61_1423,,Famões (R Cidade Amarante),,38.7973447863934,-9.21687268162795,,,,
61_1083,,Famões (R Cidade Caldas Rainha) (X) R Rio Maior,,38.7961564799712,-9.21352121592262,,,,
61_1184,,Famões (R Cidade Caldas Rainha Lte 91),,38.7962519568072,-9.2137089001157,,,,
61_1579,,Famões (R Cidade Silves) (X) R Cidade Évora,,38.7963298900362,-9.21212576620147,,,,
61_1185,,Famões (R Cidade Silves Fte 280),,38.7973612479956,-9.21124455193404,,,,
61_253,,Famões (R Cidade Silves Fte 302),,38.7965133287863,-9.21206152245964,,,,
61_2028,,Famões (R Cidade Silves Lte 290),,38.7977435979796,-9.21090921526615,,,,
61_2379,,Famões (R Feliciano Ant Carvalho),,38.7896904067812,-9.21207010999724,,,,
61_1574,,Famões (R João Augusto Gouveia 3),,38.8000992960646,-9.20617937106566,,,,
61_2360,,Famões (R José Ant Carvalho) Farmácia,,38.7917061643343,-9.2106227012343,,,,
61_1577,,Famões (R José Ant Carvalho) Fte Farmácia,,38.7916656867561,-9.21059246029283,,,,
61_567,,Famões (R José Ant Carvalho Fte 5 A),,38.7905311518748,-9.20968061426377,,,,
61_1576,,Famões (R José Augusto Gouveia Fte 52),,38.8000726160856,-9.20647473032203,,,,
61_335,,Famões (R M Gomes Costa),,38.7901908368719,-9.20932667014831,,,,
61_324,,Famões (R M Gomes Costa) Fte Qta Alvito,,38.7907132083739,-9.19731666007198,,,,
61_333,,Famões (R M Gomes Costa) Qta Alvito,,38.7906586325179,-9.19697765031332,,,,
61_1874,,Famões (R Sol Nascente Fte Lte 251),,38.7991600698273,-9.20120844896661,,,,
61_1875,,Famões (R Sol Nascente Lte 251),,38.799136558863,-9.20111806124214,,,,
61_1951,,Famões (R Sto António) Jardim Infantil,,38.7995701208297,-9.20949647600927,,,,
61_239,,Famões (Rotunda Moinho),,38.7897502744776,-9.2103283739445,,,,
61_1087,,Famões (Rotunda Supermercado ),,38.7907829115114,-9.19478066503482,,,,
61_1355,,Famões (Rotunda Supermercado),,38.7905558661578,-9.19526072089225,,,,
61_321,,Famões (X) Alto Famões (Moinho),,38.7898969833685,-9.20981658696958,,,,
61_2376,,Famões (X) R Feliciano Ant Carvalho,,38.7896624966015,-9.21162458427396,,,,
61_949,,Fanhäes (Lgo Igreja),,38.8824036182478,-9.1531006310414,,,,
61_948,,Fanhäes (R Alfredo Dinis Alex 13),,38.8804482790718,-9.15273522807405,,,,
61_953,,Fanhäes (R Artur Domingos Simäes 1),,38.8814742703748,-9.15258113562592,,,,
61_952,,Fanhäes (R Bartol Cunha Robalo 2),,38.8808893232666,-9.15568606226134,,,,
61_955,,Fanhäes (R Monte Esperan‡a 38),,38.8821362655091,-9.15526414162286,,,,
61_947,,Fanhões (Quiosque),,38.8806875344579,-9.15295304664852,,,,
61_951,,Fanhões (R Bela Vista 26),,38.8809971638625,-9.15607211602245,,,,
61_957,,Fanqueiro (Cooperativa),,38.8362633302525,-9.1695523503719,,,,
61_965,,Fanqueiro (R Anselmo Braamcamp Freire) Escolas,,38.838779822773,-9.16891260446576,,,,
61_959,,Fanqueiro (R Anselmo Braamcamp Freire 26),,38.8397620126148,-9.17045611161382,,,,
61_2333,,Fanqueiro (R Anselmo Braamcamp Freire 26),,38.8402293389371,-9.17105611438347,,,,
61_1174,,Fanqueiro (R Com Carvalho Araújo 12),,38.8377020810412,-9.170397253813,,,,
61_971,,Fanqueiro (R Comandante Carvalho Ara£jo 9),,38.8376500144048,-9.17030351449348,,,,
61_2330,,Fanqueiro (R Joaquim Fernandes 8A),,38.8392624034419,-9.17079948368354,,,,
61_2329,,Fanqueiro (R Jos‚ Gomes Ferreira 26),,38.8391695218947,-9.16866841351158,,,,
61_964,,Fanqueiro (R Marechal Craveiro Lopes 26),,38.839853564874,-9.1690715050156,,,,
61_963,,Fanqueiro (R Marechal Craveiro Lopes 45),,38.8404521661108,-9.17023225950817,,,,
61_961,,Fanqueiro (R Marechal Craveiro Lopes 6),,38.8387997799993,-9.16714455964911,,,,
61_958,,Fanqueiro (R S JoÆo Deus 7),,38.8386747018077,-9.17166404619727,,,,
61_970,,Fanqueiro (Supermercado),,38.8365266815945,-9.16935480800402,,,,
61_1605,,Fetais  (R Fetais) Lgo,,38.7977530432415,-9.14499370568211,,,,
61_1599,,Fetais (Estr Fetais 1),,38.7974092063875,-9.14247512288076,,,,
61_1601,,Fetais (Fte Armazém),,38.7992384970084,-9.14604655584468,,,,
61_1602,,Fetais (Fte Supermercado),,38.7986380268252,-9.14762083408726,,,,
61_1604,,Fetais (Lgo) Café,,38.7979292034383,-9.14550178459413,,,,
61_1607,,Fetais (R Fetais),,38.7986596338,-9.14776152942319,,,,
61_1600,,Fetais (R Fetais) Rotunda,,38.7974105303066,-9.14243709711443,,,,
61_1606,,Fetais (Transp Alexandre A Pereira),,38.7987271794962,-9.14646075918672,,,,
61_2264,,Fetais (Urb Qta Mós Lte 13A),,38.7967468536294,-9.14827382828633,,,,
61_2263,,Fetais (Urb Qta Mós Lte 4),,38.7978903481123,-9.14901258537978,,,,
61_1609,,Fetais Baixo,,38.801131136107,-9.14495577131533,,,,
61_1608,,Fetais Baixo (Cabine EDP),,38.800991045178,-9.14503416930272,,,,
61_972,,Flamenga,,38.8099989874478,-9.15663398856211,,,,
61_339,,Flamenga,,38.8099517992478,-9.15665341599768,,,,
61_1611,,Fonte Pipa,,38.7959318709,-9.14948519284056,,,,
61_1610,,Fonte Pipa,,38.796014680088,-9.14942026077586,,,,
61_342,,Fonte Santa,,38.8231971471783,-9.22317514177077,,,,
61_974,,Fonte Santa,,38.8922234492682,-9.10702322617435,,,,
61_341,,Fonte Santa (Alto Cruz),,38.8230640083166,-9.22301994816888,,,,
61_980,,Fonte Santa (Av Liberdade Lte 17),,38.8857075473593,-9.10139256447951,,,,
61_979,,Fonte Santa (Av Liberdade Lte 17),,38.8856229785991,-9.10122459508644,,,,
61_976,,Fonte Santa (Av Liberdade Lte 31),,38.8872789567718,-9.10337368025023,,,,
61_977,,Fonte Santa (Av Liberdade Lte 32),,38.8872898849105,-9.10338268191292,,,,
61_978,,Fonte Santa (Av Liberdade Lte 79),,38.8896971946186,-9.10536427938749,,,,
61_975,,Fonte Santa (Av Liberdade Lte 79),,38.8893920948992,-9.10508389251383,,,,
61_1612,,Forte Casa (EN 10) Transformador EDP,,38.8690961525104,-9.05765452095965,,,,
61_1615,,Forte Casa (EN 10) Viaduto Peões,,38.8723425960864,-9.05487339627633,,,,
61_1613,,Forte Casa (EN 10 26),,38.8723281477572,-9.0548804899766,,,,
61_1614,,Forte Casa (EN 10 Lte 2),,38.8691043675983,-9.05764955891437,,,,
61_1616,,Forte Casa (Lgo Forte Casa 5),,38.8742288984415,-9.05555854090197,,,,
61_1617,,Forte Casa (Lgo),,38.8737952591112,-9.0562085458248,,,,
61_1618,,Forte Casa (Lgo),,38.8738873360215,-9.05568042585938,,,,
61_2054,,Forte Casa (R 25 Abril) Centro Saúde,,38.8727821386944,-9.05702790226114,,,,
61_1621,,Forte Casa (R Alves Redol 25),,38.8718001649468,-9.05705923364016,,,,
61_1622,,Forte Casa (R Alves Redol Fte 52),,38.8733047607472,-9.0593388489629,,,,
61_2003,,Forte Casa (R António Gedeão Lte 8),,38.8766887651747,-9.05444046696022,,,,
61_2015,,Forte Casa (R António Gedeão Lte 8),,38.8764774512636,-9.05456250314081,,,,
61_1625,,Forte Casa (R Batista Pereira) (X) Pç Eça Queirós,,38.8677075129932,-9.05890473107458,,,,
61_2045,,Forte Casa (R Batista Pereira 17),,38.8683292315166,-9.0604984766321,,,,
61_1623,,Forte Casa (R Combatentes 26),,38.8756511417001,-9.05542505797619,,,,
61_1624,,Forte Casa (R Fernando Pessoa 8),,38.8685098535498,-9.05908298342824,,,,
61_2407,,Forte Casa (R Forte Abrunheira),,38.8774810233817,-9.05310707553566,,,,
61_2409,,Forte Casa (R Forte Abrunheira),,38.8772995130454,-9.05306447947635,,,,
61_1626,,Forte Casa (R Liberdade 30),,38.8731092314109,-9.05540939166948,,,,
61_1627,,Forte Casa (R Padre Américo) Esc Primária,,38.8700879614039,-9.06168311633618,,,,
61_1628,,Forte Casa (R Padre Américo 14),,38.8715697317671,-9.06005944712648,,,,
61_1629,,Forte Casa (R Padre Américo 49),,38.8713643009159,-9.0601836083843,,,,
61_1630,,Forte Casa (R Padre Américo 6),,38.8699607452443,-9.06155599581114,,,,
61_2482,,Forte Casa (R República) Esc Secundaria,,38.8751312661385,-9.05716203927487,,,,
61_1631,,Forte Casa (R República) Esc Secundária,,38.8745015571256,-9.05724857367536,,,,
61_1632,,Forte Casa (R República) Esc Secundária,,38.8750887134171,-9.05718753092145,,,,
61_2016,,Forte Casa (R República 26),,38.8758128802451,-9.05511539279617,,,,
61_1634,,Forte Casa (R República 85),,38.8737113373862,-9.05973473978821,,,,
61_1633,,Forte Casa (R República 85),,38.8727350341516,-9.05987279426005,,,,
61_1635,,Forte Casa (R República 90),,38.8746256743422,-9.05806418042521,,,,
61_763,,Forte da Casa (R República 57),,38.8757719883576,-9.05500002807743,,,,
61_986,,Freixial (Bombas),,38.9034400103177,-9.15524877444321,,,,
61_987,,Freixial (Bombas),,38.9033556054646,-9.15526748232902,,,,
61_992,,Freixial (Centro),,38.9057186484029,-9.15467655447183,,,,
61_991,,Freixial (Centro),,38.9056684560464,-9.1546822992202,,,,
61_995,,Freixial (X) Avi rio,,38.9039798790497,-9.14698538574376,,,,
61_994,,Freixial (X) Aviário,,38.9039789536164,-9.14695895508857,,,,
61_989,,Freixial (X) R Alves Redol,,38.9069767536248,-9.15692714174348,,,,
61_990,,Freixial (X) R Alves Redol,,38.9069398652216,-9.15682541095661,,,,
61_998,,Freixial (X) Ribas,,38.904732278078,-9.15565033264048,,,,
61_997,,Freixial (X) Ribas,,38.9049117096325,-9.1558454068025,,,,
61_1637,,Frielas,,38.822433037414,-9.14593641172691,,,,
61_1636,,Frielas (Clube),,38.8255035312804,-9.14303540530817,,,,
61_1638,,Frielas (Cpo Futebol),,38.8245849033538,-9.14478368860597,,,,
61_1639,,Frielas (Esc Primária),,38.8254933354185,-9.143021444343,,,,
61_1640,,Frielas (Instituto),,38.8222527908458,-9.1460108477694,,,,
61_1641,,Frielas nº 3,,38.8245607178227,-9.14479666543604,,,,
61_1642,,Galinheiras (Lgo  Galinheiras),,38.7882724012184,-9.14976859322024,,,,
61_1643,,Galinheiras (Lgo) Lte 3,,38.7921182367424,-9.15072177846673,,,,
61_1644,,Galinheiras (Lgo) Pq Infantil,,38.792233193241,-9.15026404500641,,,,
61_1645,,Galinheiras (Paiol Militar),,38.7929993864287,-9.15549923950366,,,,
61_1646,,Galinheiras (Paiol Militar Lte 57),,38.7929211533367,-9.15564344639309,,,,
61_1647,,Galinheiras (X) Forte Ameixoeira,,38.7881997247342,-9.14960830774924,,,,
61_1648,,Galinheiras (X) R Grafanil,,38.7932797910102,-9.15312997885597,,,,
61_1649,,Galinheiras (X) R Grafanil,,38.7932798893689,-9.15315852605617,,,,
61_2446,,Granja,,38.8609280456589,-9.10222551535217,,,,
61_1001,,Granja (Campo Jogos),,38.8586638382774,-9.1042102862374,,,,
61_2029,,Granja (Fte Pq Indústrial),,38.8626580298337,-9.10346587340015,,,,
61_2032,,Granja (Pq Indústrial),,38.862394445821,-9.10282428902902,,,,
61_1004,,Granja (R 1º Maio 2),,38.8576059717777,-9.10746351220017,,,,
61_1005,,Granja (R 1º Maio 5),,38.8576430786761,-9.10751466034365,,,,
61_1006,,Granja (R 25 Abril Lte 14),,38.8584075986654,-9.10480076396786,,,,
61_1010,,Granja (X) Sta Iria,,38.8598681409422,-9.1036207779021,,,,
61_1009,,Granja (X) Sta Iria,,38.8599207428582,-9.10362238318389,,,,
61_1002,,Granja (Zona Indústrial),,38.8602412252346,-9.11241570905395,,,,
61_1003,,Granja (Zona Indústrial),,38.8602635516526,-9.11286717564488,,,,
61_2447,,GranjaEN155-5,,38.8604996975777,-9.10208328194431,,,,
61_1152,,Idanha (Av Veiga Cunha Fte 47 B),,38.775339538887,-9.27103941902791,,,,
61_1007,,Idanha (R 25 Abril) Casa Saúde (Dente D'Alho),,38.7747004230516,-9.27441130540474,,,,
61_1112,,Idanha (R Sociedade 22 Maio) Banco,,38.774841038644,-9.27189386016654,,,,
61_1032,,Idanha (R Sociedade 22 Maio 84) Dente D'Alho,,38.7757600377603,-9.27720353218342,,,,
61_999,,Idanha (R Sociedade 22 Maio 97) Dente D'Alho,,38.7757637946582,-9.27727401119554,,,,
61_1145,,Idanha (R Sociedade 22 Maio Fte 21) Farmácia,,38.7747943524188,-9.27289632103552,,,,
61_1122,,Infantado (Av Descobertas) Piscinas,,38.8418660885825,-9.16123292792264,,,,
61_1119,,Infantado (Av Descobertas) Piscinas,,38.8427099434047,-9.16107210205665,,,,
61_1120,,Infantado (Av Descobertas 27),,38.8397122060191,-9.16235972992431,,,,
61_1121,,Infantado (Av Descobertas 43),,38.8383342191384,-9.16103909815024,,,,
61_259,,Infantado (Av Descobertas Lte 71),,38.8374340418278,-9.15737012215191,,,,
61_1123,,Infantado (Av Descobertas Lte 79),,38.8374164550177,-9.15761089839061,,,,
61_2140,,Infantado (R Vasco Gama 30),,38.8404063528539,-9.16083642620079,,,,
61_1124,,Infantado (R Vasco Gama 15),,38.8396867206764,-9.15988418255017,,,,
61_1125,,Infantado (R Vasco Gama 29),,38.8406196066622,-9.16114372172615,,,,
61_2182,,Infantado (R Vasco Gama 66),,38.8392640096194,-9.1593696380703,,,,
61_1013,,Infantado (X) Via R pida,,38.842376452878,-9.16288014564418,,,,
61_1014,,Infantado (X) Via Rápida,,38.8420856056854,-9.16293482892047,,,,
61_2154,,Jardim Amoreira (Av 25 Abril),,38.8136747594295,-9.18709067433376,,,,
61_2222,,Jardim Amoreira (Av 25 Abril),,38.8134265908395,-9.1869546220467,,,,
61_2221,,Jardim Amoreira (Av Amália Rodrigues) Fte Pastelar,,38.8125570697509,-9.18832297488825,,,,
61_2168,,Jardim Amoreira (Av Amália Rodrigues) Pastelaria,,38.8127595277786,-9.18766436717065,,,,
61_2212,,Jardim Amoreira (Av Amália Rodrigues 20),,38.8120819863061,-9.18996677663365,,,,
61_2220,,Jardim Amoreira (Av Amália Rodrigues Fte 20),,38.8119547151551,-9.19035718149832,,,,
61_2219,,Jardim Amoreira (R Ant Menano 4),,38.8110610878705,-9.19029071791038,,,,
61_2213,,Jardim Amoreira (Rua Ant Menano) (X) Rua Armandinh,,38.8110800720205,-9.19029926043548,,,,
61_2388,,Jardim Radial (Av 25 Abril),,38.8122272539173,-9.18625830979294,,,,
61_2385,,Jardim Radial (Av 25 Abril),,38.8118763612892,-9.18603955073867,,,,
61_2027,,Jardim Radial (Av 25 Abril) (X) R Augusto Vasconce,,38.8063273678133,-9.18518783625268,,,,
61_2237,,Jardim Radial (Av 25 Abril) (X) R Heliodoro Salgad,,38.8089217428433,-9.18462216522708,,,,
61_2048,,Jardim Radial (Av 25 Abril) (X) R Jardim,,38.8063751359188,-9.18512345648547,,,,
61_2389,,Jardim Radial (Av 25 Abril) Esc Primária,,38.8094227694334,-9.18441300178894,,,,
61_2384,,Jardim Radial (Av 25 Abril) Fte Esc Primária,,38.8089914690421,-9.18442715152338,,,,
61_1312,,Jardim Radial (Av 25 Abril Lte 70),,38.8072980227868,-9.18452201761152,,,,
61_1305,,Jardim Radial (Av 25 Abril Lte 87),,38.8072742767714,-9.18452376421156,,,,
61_75,,Jardim Radial (Av Liberdade 10),,38.8047619989326,-9.18408725812866,,,,
61_983,,Jardim Radial (Av Liberdade 13 B),,38.8057141886816,-9.18519491261265,,,,
61_2049,,Jardim Radial (Av Liberdade 27),,38.8067024521022,-9.18640821774404,,,,
61_2062,,Jardim Radial (Av Liberdade 30),,38.8065250377308,-9.18619470036374,,,,
61_982,,Jardim Radial (Av Liberdade 5 A),,38.8048234766781,-9.18416235741289,,,,
61_2239,,Jardim Radial (R Heliodóro Salgado),,38.8083300733173,-9.1858815181004,,,,
61_2411,,Jardim Radial (R Heliodoro Salgado 9),,38.8083133573797,-9.18588399576909,,,,
61_1074,,Jardim Radial (R Manuel Arriaga Fte 6 B),,38.8046613642728,-9.18537106196884,,,,
61_368,,Jardim Radial (R Manuel D´Arriaga Fte 10 A),,38.8050563810659,-9.18484758862032,,,,
61_1016,,Junta Rios (X) EN 115,,38.9356024731104,-9.13955709744271,,,,
61_1015,,Junta Rios (X) EN 115,,38.9355878196634,-9.13952003783193,,,,
61_1650,,Lisboa (Aeroporto Ana) Fte Traseiras Portugália,,38.7821919780056,-9.12558817592288,,,,
61_1651,,Lisboa (Aeroporto Ana) R C,,38.7774161201139,-9.12683180943056,,,,
61_1655,,Lisboa (Aeroporto Ana) R C,,38.7803928670737,-9.12535666529095,,,,
61_1653,,Lisboa (Aeroporto Ana) R C Fte Portão Ana,,38.7744935805227,-9.12604027717944,,,,
61_1654,,Lisboa (Aeroporto Ana) R C Portão Ana,,38.774457878922,-9.1260303194805,,,,
61_1664,,Lisboa (Aeroporto),,38.7705460951634,-9.12571102821334,,,,
61_1658,,Lisboa (Aeroporto) (X) R C D Fte Portugália,,38.7796996836997,-9.12599759028631,,,,
61_1659,,Lisboa (Aeroporto) Est Serviço,,38.7699048142612,-9.12661435241771,,,,
61_1660,,Lisboa (Aeroporto) Gare,,38.7678971788583,-9.12862791276212,,,,
61_1662,,Lisboa (Aeroporto) Metro,,38.7690421059692,-9.12784632622728,,,,
61_1652,,Lisboa (Aeroporto) R C Porta Ana,,38.7773062157639,-9.12680925194644,,,,
61_358,,Lisboa (Al Linhas Torres) Hospital,,38.7658886919852,-9.15739617112244,,,,
61_357,,Lisboa (Al Linhas Torres) Hospital,,38.7663227814887,-9.15758144274287,,,,
61_1668,,Lisboa (Al Linhas Torres) Lumiar,,38.7729187659192,-9.16129666297779,,,,
61_1667,,Lisboa (Al Linhas Torres) Lumiar,,38.7726402404832,-9.16113899842206,,,,
61_1374,,Lisboa (Al Oceanos) (X) Passeio Garças,,38.7806621510299,-9.09646360483354,,,,
61_1375,,Lisboa (Al Oceanos) (X) Passeio Levante,,38.7836002272532,-9.09820043826528,,,,
61_1954,,Lisboa (Al Oceanos) (X) R Com Cousteau,,38.7787023587323,-9.09528033699704,,,,
61_1669,,Lisboa (Areeiro) Av Gago Coutinho (Pq Automóveis),,38.7434172392276,-9.13255166167638,,,,
61_1670,,Lisboa (Areeiro) Av Pd Manuel Nobrega,,38.7438518944662,-9.13402364492728,,,,
61_1915,,Lisboa (Areeiro) Av Pd Manuel Nobrega,,38.7438291616442,-9.13386256981159,,,,
61_1671,,Lisboa (Av Brasil) Hospital Júlio Matos,,38.7563744131878,-9.146835073904,,,,
61_1949,,Lisboa (Av Brasil) LNEC,,38.758061418957,-9.1414680198777,,,,
61_1672,,Lisboa (Av Brasil) Pote De Água,,38.759973635049,-9.13552909575232,,,,
61_1673,,Lisboa (Av Brasil) Pote De Água (Pq Jogos Arroios),,38.7597967050004,-9.13609180991192,,,,
61_1674,,Lisboa (Av Brasil) Relógio,,38.7621704745345,-9.13050603052074,,,,
61_1675,,Lisboa (Av Brasil 112),,38.7570052912273,-9.14483512881443,,,,
61_1950,,Lisboa (Av Brasil 162),,38.7584628302581,-9.14025818954562,,,,
61_1676,,Lisboa (Av Brasil 18A),,38.7551717377479,-9.15048783304345,,,,
61_1946,,Lisboa (Av Carlos Paredes),,38.7746910107018,-9.14734078049106,,,,
61_1707,,Lisboa (Av Carlos Paredes) (X),,38.7743151372779,-9.15218512576842,,,,
61_1710,,Lisboa (Av Carlos Paredes) Musgueira,,38.7746787153112,-9.14751227404212,,,,
61_1709,,Lisboa (Av Carlos Paredes) Pastelaria,,38.7743269321816,-9.15200635050077,,,,
61_1679,,Lisboa (Av Gago Coutinho),,38.7498735793652,-9.13077792025418,,,,
61_1678,,Lisboa (Av Gago Coutinho) Rot Relógio,,38.7620825349094,-9.12957880851145,,,,
61_1677,,Lisboa (Av Gago Coutinho) Rot Relógio,,38.7614939115522,-9.12976477421152,,,,
61_1680,,Lisboa (Av Gago Coutinho 69),,38.7498909365823,-9.13089107499804,,,,
61_359,,Lisboa (Cal‡ada Carriche),,38.7785717471038,-9.16423461780688,,,,
61_1930,,Lisboa (Campo Grande),,38.761427656948,-9.15771397059756,,,,
61_1929,,Lisboa (Campo Grande),,38.7614260418159,-9.1577166149989,,,,
61_2486,,Lisboa (Campo Grande),,38.7609526905253,-9.15794414657692,,,,
61_868,,Lisboa (Campo Grande),,38.7611183229439,-9.15776152806866,,,,
61_813,,Lisboa (Campo Grande),,38.7603724978286,-9.15832600001544,,,,
61_858,,Lisboa (Campo Grande),,38.761144508313,-9.15770537437472,,,,
61_1931,,Lisboa (Campo Grande),,38.7612155426068,-9.1578507419516,,,,
61_973,,Lisboa (Campo Grande),,38.7607277659049,-9.15762290797488,,,,
61_876,,Lisboa (Campo Grande),,38.7609466482266,-9.15755415800726,,,,
61_793,,Lisboa (Campo Grande),,38.7608903033018,-9.15739370520383,,,,
61_1038,,Lisboa (Campo Grande),,38.7608619548684,-9.15774611255002,,,,
61_865,,Lisboa (Campo Grande),,38.7611049866924,-9.15779012723709,,,,
61_1932,,Lisboa (Campo Grande),,38.7612792856002,-9.15795689400132,,,,
61_860,,Lisboa (Campo Grande),,38.7609643493166,-9.15779133912543,,,,
61_857,,Lisboa (Campo Grande),,38.8577148563952,-9.07271754452278,,,,
61_1686,,Lisboa (Campo Grande) Museu Cidade,,38.7579302551489,-9.15539938014172,,,,
61_1683,,Lisboa (Campo Grande 296A),,38.755725644375,-9.15157701817995,,,,
61_340,,Lisboa (Carnide) Metro,,38.7594558431325,-9.1925361089528,,,,
61_277,,Lisboa (Colégio Militar),,38.752905375749,-9.18962444820184,,,,
61_272,,Lisboa (Colégio Militar),,38.7531722275,-9.19009599799854,,,,
61_297,,Lisboa (Colégio Militar),,38.7530874978417,-9.18994715908398,,,,
61_314,,Lisboa (Colégio Militar),,38.7532327613806,-9.19020233381123,,,,
61_1695,,Lisboa (Encarnação) Esc Superior Comércio,,38.7817231458181,-9.12047455471792,,,,
61_1696,,Lisboa (Encarnação) Fte Portão Ana,,38.7827904162972,-9.12547300622853,,,,
61_1697,,Lisboa (Encarnação) Portão Ana,,38.7827650542146,-9.12518618219826,,,,
61_1919,,Lisboa (Est Oriente),,38.7677566639841,-9.10010995473949,,,,
61_1922,,Lisboa (Est Oriente),,38.7677750129104,-9.10036878477423,,,,
61_1924,,Lisboa (Est Oriente),,38.7675126954164,-9.10012588114638,,,,
61_1923,,Lisboa (Est Oriente),,38.7675251753302,-9.10038674086464,,,,
61_1918,,Lisboa (Est Oriente),,38.7679517838405,-9.10009338743333,,,,
61_1917,,Lisboa (Est Oriente),,38.7681691346868,-9.10006972327854,,,,
61_1921,,Lisboa (Est Oriente),,38.7682094715209,-9.10034315392503,,,,
61_1920,,Lisboa (Est Oriente),,38.7679751332678,-9.10035767810121,,,,
61_363,,Lisboa (Estr Desvio) Farmácia,,38.7793375013028,-9.16328313888706,,,,
61_364,,Lisboa (Estr Desvio) Qta Lavadeiras,,38.7835889123355,-9.1634856277945,,,,
61_2492,,Lisboa (Estrada Correia) Centro Saúde,,38.7605698770089,-9.19479973083639,,,,
61_2491,,Lisboa (Estrada Correia) Instituto,,38.7604071344073,-9.19414152911581,,,,
61_1699,,Lisboa (Lumiar) Estr Torre 27,,38.7742440309491,-9.15937904794261,,,,
61_1700,,Lisboa (Lumiar) Supermercado,,38.7740602618871,-9.16046808508988,,,,
61_2401,,Lisboa (Olivais) Av Boa Esperança,,38.774828541373,-9.10261227910981,,,,
61_1712,,Lisboa (Olivais) Av Boa Esperança (Cpo Futebol),,38.7748378083983,-9.10307340948808,,,,
61_1723,,Lisboa (Olivais) Pç José Queirós,,38.7731253290386,-9.10517093246658,,,,
61_2402,,Lisboa (Olivais) Pç José Queirós (Est Serviço),,38.7743181085589,-9.10495232486378,,,,
61_1719,,Lisboa (Olivais) Pç José Queirós Est Serviço,,38.774139792985,-9.10491343612109,,,,
61_1701,,Lisboa (R Octávio Pato) Fte nº 6,,38.7776310208274,-9.14579261563382,,,,
61_1702,,Lisboa (R Octávio Pato) nº 6,,38.7777095551679,-9.14576710193014,,,,
61_1573,,Lisboa (R Prof José Pinto Correia) (X) Estr Desvio,,38.7822739639012,-9.16273742040454,,,,
61_1572,,Lisboa (R Prof José Pinto Correia) (X) Estrada Des,,38.7819771618932,-9.16287413378524,,,,
61_1724,,Lisboa (Rotunda Relógio),,38.7622324327158,-9.13043966722547,,,,
61_1111,,Lopas (Av Fernão M Pinto) (X) R Dom Borges,,38.7753072761358,-9.29113434210958,,,,
61_370,,Lopas (Est Cacém),,38.7799211354482,-9.28993335826962,,,,
61_369,,Lopas (Est Cacém),,38.7798215236568,-9.29007099443865,,,,
61_371,,Lopas (X) R Domingos Borges,,38.7755931582475,-9.29093441067704,,,,
61_226,,Loures (Casal Serra) Hospital,,38.8238693128921,-9.17638696173392,,,,
61_2063,,Loures (Centro Comercial),,38.8200721497002,-9.1764755685504,,,,
61_372,,Loures (Cpo Futebol),,38.8286111840178,-9.16497354081056,,,,
61_375,,Loures (Esc Secundária),,38.8279760235608,-9.16432913883447,,,,
61_1022,,Loures (Escolas),,38.8293161096317,-9.1621036200639,,,,
61_2387,,Loures (Hospital Beatriz Ângelo),,38.8238830717494,-9.17658984557304,,,,
61_2392,,Loures (Hospital Beatriz Ângelo),,38.8238685412045,-9.17607166823776,,,,
61_5430,,Loures (Hospital Beatriz Ângelo) Consultas,,38.8222878995488,-9.1759704128661,,,,
61_2430,,Loures (Hospital Beatriz Ângelo) Consultas Externa,,38.8223105056886,-9.1759465830684,,,,
61_436,,Loures (IKEA),,38.8174383200295,-9.14920299715433,,,,
61_1019,,Loures (Lgo Câmara),,38.8289420291287,-9.1668955912928,,,,
61_385,,Loures (Mirante),,38.8241554052943,-9.17171157027623,,,,
61_374,,Loures (Mirante),,38.8241084667187,-9.17174739230219,,,,
61_1024,,Loures (Qta Sacouto),,38.8378530484706,-9.16677479912396,,,,
61_1025,,Loures (Qta Sacouto),,38.8379708918468,-9.16666977770671,,,,
61_1029,,Loures (R Alberto Alves Oliveira),,38.8283113896485,-9.16342488057169,,,,
61_2141,,Loures (R Alfredo Duarte Pinto) Bombas,,38.8268410905553,-9.16242891013069,,,,
61_2138,,Loures (R Alfredo Duarte Pinto) Bombas,,38.8268459846602,-9.16240749171496,,,,
61_1036,,Loures (R Cidade Horta),,38.8278819151384,-9.17055580668716,,,,
61_1062,,Loures (R Dr Henrique Barbas Albuquerque 8),,38.8281957393773,-9.16275680129718,,,,
61_1020,,Loures (R Man Aug Pacheco) CATUS,,38.8283913048442,-9.1681638321871,,,,
61_379,,Loures (R Man Franc Soromenho) (X) Cartório,,38.8269779834021,-9.16919075062293,,,,
61_380,,Loures (R Man Franc Soromenho 25) (X) Cartório,,38.8269580204672,-9.16923465155046,,,,
61_1030,,Loures (R Man Franc Soromenho 41 A),,38.8284839707437,-9.16878545499806,,,,
61_1031,,Loures (R Man Franc Soromenho 59),,38.8245143827927,-9.16913409722435,,,,
61_378,,Loures (R Man Franc Soromenho 59),,38.8244606324259,-9.16907041320795,,,,
61_1033,,Loures (R Oliven‡a) Lgo Marcos RomÆo Reis Junior,,38.8288448359548,-9.16676806962123,,,,
61_2507,,Loures (R República 32),,38.8293369999638,-9.16580769209069,,,,
61_384,,Loures (Urb Urmeira) EDP,,38.8264068605356,-9.17129876729947,,,,
61_1348,,Loures (Urb Urmeira) EDP,,38.8266051483872,-9.17111482894741,,,,
61_1021,,Loures (X) R Horta Ponte,,38.8334735850374,-9.17110481929911,,,,
61_1023,,Loures (X) R Horta Ponte,,38.8333229209499,-9.17106529749547,,,,
61_2449,,Loures (Zona Comercial),,38.8200687362827,-9.17649726120817,,,,
61_2505,,Loures R. Frederico Tarr‚,,38.8302129869274,-9.16894210959551,,,,
61_2139,,LoureShopping,,38.8334806691813,-9.1557667321324,,,,
61_2143,,LoureShopping (fte),,38.8335414335762,-9.15560407633134,,,,
61_1753,,LoureShopping (Rotunda),,38.8321057992797,-9.15654521977406,,,,
61_388,,Lugar D'Além (Café),,38.8191420600675,-9.22312983535902,,,,
61_387,,Lugar D'Além (Café),,38.8194175797483,-9.22272889441084,,,,
61_389,,Lugar D'Além (Casal Morgado) Casa Repouso,,38.8195503225111,-9.22157972492017,,,,
61_386,,Lugar D'Além (Casal Morgado) Casa Repouso,,38.8193761160748,-9.22176642641908,,,,
61_390,,Machado (Av Gen Humb Delgado) (X) Albogas,,38.8484988893175,-9.26214977551024,,,,
61_391,,Machado (Av Gen Humb Delgado) (X) Albogas,,38.848691526618,-9.2623854286798,,,,
61_393,,Machado (Escola),,38.8462585467105,-9.26135666666558,,,,
61_392,,Machado (Escola),,38.8460407209087,-9.26126014540948,,,,
61_1039,,Malveira (Adega),,38.9302579750791,-9.25165632356354,,,,
61_1041,,Malveira (Bombas),,38.9293883293868,-9.24912786810109,,,,
61_1040,,Malveira (Bombas),,38.9293641850204,-9.24993456334282,,,,
61_395,,Malveira (Estação),,38.9291180778308,-9.26069886400222,,,,
61_1043,,Malveira (R 25 Abril 26),,38.9298816185511,-9.25607143917549,,,,
61_1042,,Malveira (R 25 Abril Fte 18),,38.9305258588779,-9.25511934660427,,,,
61_1045,,Malveira (X) R Lamarão,,38.9293579344569,-9.24639596307663,,,,
61_1044,,Malveira (X) R Lamarão,,38.9293860505938,-9.24677651190986,,,,
61_399,,Mancebas (Largo),,38.829859425136,-9.27487452334979,,,,
61_400,,Mancebas (Largo),,38.8297736570397,-9.27507119710653,,,,
61_2108,,Manjoeira (B§ Municipal),,38.8562838858874,-9.16345912556462,,,,
61_1047,,Manjoeira (Lgo Alfredo Caldeira),,38.8631906377794,-9.15998417310935,,,,
61_1046,,Manjoeira (Lgo Alfredo Caldeira),,38.8631663287116,-9.15990360778249,,,,
61_911,,Manjoeira (R 1§ Maio) (X) Zambujeiro,,38.8604055566635,-9.15617189083637,,,,
61_1052,,Manjoeira (R 1§ Maio 10),,38.8617687865477,-9.15831502539454,,,,
61_910,,Manjoeira (R 1º Maio) (X) Zambujeiro,,38.8604494311075,-9.1562408206783,,,,
61_1051,,Manjoeira (R 1º Maio 10),,38.8618706267393,-9.15849865692561,,,,
61_1070,,Manjoeira (R Rep£blica 8),,38.8612919334244,-9.16231811796312,,,,
61_1048,,Manjoeira (R República 8),,38.8612047250027,-9.16238140880526,,,,
61_1049,,Manjoeira (Socied Recreativa),,38.8623116837101,-9.16114421975609,,,,
61_1050,,Manjoeira (Socied Recreativa),,38.8622378103146,-9.16124136258793,,,,
61_1054,,Manjoeira (X) B§ Municipal,,38.8600806811941,-9.16531786016344,,,,
61_1053,,Manjoeira (X) Bº Municipal,,38.8598903525,-9.16550632737454,,,,
61_2007,,MARL (Av NAC) Fte Est Serviço,,38.8665106431882,-9.11030720406498,,,,
61_2002,,MARL (Av NAC Parque 19),,38.8670025832292,-9.1079648183989,,,,
61_2006,,MARL (Av Nac Restaurante),,38.8673598315589,-9.10627702180335,,,,
61_2010,,MARL (Av Principal Rouco) (X) Rua 10,,38.8703507639186,-9.10737699005497,,,,
61_2011,,MARL (Av Principal Rouco) (X) Rua 4,,38.8698926534742,-9.10970078547654,,,,
61_2008,,MARL (Av Principal Rouco) (X) Rua 4,,38.8697755563856,-9.11011687846462,,,,
61_2005,,MARL (Av Santa Maria) (X) Rua 11,,38.8670742025557,-9.10478894698195,,,,
61_2004,,MARL (Av Santa Maria) (X) Rua 5,,38.8664417927941,-9.10787527188517,,,,
61_2468,,MARL (Est. Serviço),,38.8664800372508,-9.1106790016864,,,,
61_993,,Mealhada (Centro Sa£de Loures),,38.8254201438716,-9.16297880088334,,,,
61_1056,,Mealhada (Chafariz),,38.8236648827895,-9.16115732906266,,,,
61_401,,Mealhada (Fte Pal cio Justi‡a),,38.8257554225923,-9.16224865501504,,,,
61_1037,,Mealhada (Semáforos),,38.8234582969133,-9.16051091067898,,,,
61_404,,Mealhada (X) Qta Conventinho,,38.8216941457556,-9.15818736170025,,,,
61_405,,Mealhada (X) Qta Conventinho,,38.8213729935912,-9.15799476978994,,,,
61_1059,,Mogos (X),,38.8777293316289,-9.09439540336069,,,,
61_1060,,Mogos (X),,38.8777192817976,-9.09427592685876,,,,
61_1057,,Monte Esperan‡a,,38.881138749213,-9.15979833471874,,,,
61_1055,,Monte Esperança,,38.8811527973765,-9.15989433168818,,,,
61_1156,,Montemor (Pedreiras) Estaleiro Municipal,,38.8169452540177,-9.19410627899295,,,,
61_407,,Montemor (Pedreiras) Estaleiro Municipal,,38.8169117580423,-9.19383275422281,,,,
61_2436,,Montemor (R Major Rosa Bastos 13),,38.815539126111,-9.19987681570178,,,,
61_408,,Montemor (R Major Rosa Bastos 21),,38.8162838199326,-9.20059257117131,,,,
61_409,,Montemor (R Major Rosa Bastos 26 A),,38.8164092615557,-9.20069003280283,,,,
61_410,,Montemor (R Major Rosa Bastos Fte 58),,38.8184050222607,-9.20275370508648,,,,
61_412,,Montemor (X),,38.8185804747353,-9.20301663364858,,,,
61_1063,,Morgado (Fonte Sto António),,38.868715470179,-9.09226370185904,,,,
61_1064,,Morgado (Mercado),,38.8704871425759,-9.08847991107165,,,,
61_1065,,Morgado (Pq Infantil),,38.8705148189178,-9.08837245658964,,,,
61_1061,,Morgado (X) Qta Índias,,38.8699720757147,-9.08977851655623,,,,
61_894,,Morgado (X) Qta Índias,,38.869834751835,-9.09000010185937,,,,
61_1066,,Morgado (X) Qta Serpa,,38.8687825926517,-9.09214777851501,,,,
61_1300,,Moscavide (Av Moscavide),,38.7772337017251,-9.10185274675051,,,,
61_1725,,Moscavide (Av Moscavide) Igreja,,38.7795505824758,-9.10260687991492,,,,
61_1728,,Moscavide (EN 6-1) EDP,,38.7821911681147,-9.10446652535089,,,,
61_1727,,Moscavide (EN 6-1) EDP,,38.7827905724445,-9.10441427892934,,,,
61_1977,,Moscavide (R 1º Maio),,38.7750239922162,-9.10352115787758,,,,
61_1729,,Moscavide (R 1º Maio 34),,38.7750655828061,-9.10253317437502,,,,
61_2270,,Moscavide (R Artur Ferreira Silva),,38.776339199066,-9.10250683353695,,,,
61_2412,,Moscavide (R Artur Ferreira Silva) (X) Av Moscavid,,38.7766211167656,-9.10176979631728,,,,
61_1730,,Moscavide (R Franc Marques Beato) Cinema,,38.7767595078615,-9.10287702145723,,,,
61_1731,,Moscavide (R Franc Marques Beato 83),,38.7796564562817,-9.10437026565843,,,,
61_2232,,Moscavide (R Mário F Santos),,38.7802545604913,-9.10119110741209,,,,
61_2233,,Moscavide (R Mário F Santos Lte 3),,38.7802295371431,-9.10096411294442,,,,
61_2459,,Moscavide Cent Saúd,,38.782098365798,-9.1016194838588,,,,
61_2477,,Odivelas ( R Norberto Oliveira 10),,38.7966272106914,-9.16661937252479,,,,
61_422,,Odivelas (Av Abreu Lopes) Esc Secundária,,38.7944361911192,-9.1796581476856,,,,
61_427,,Odivelas (Av Abreu Lopes) Fte Mesquita,,38.7951282408491,-9.18195430068488,,,,
61_423,,Odivelas (Av Abreu Lopes 105) Quiosque,,38.7951912897101,-9.18307218379997,,,,
61_424,,Odivelas (Av Abreu Lopes 16),,38.7921422314574,-9.1771882264296,,,,
61_425,,Odivelas (Av Abreu Lopes 21),,38.7928966026298,-9.17746866409355,,,,
61_426,,Odivelas (Av Abreu Lopes 54) Esc Secundária,,38.7943479344027,-9.17943305862239,,,,
61_2065,,Odivelas (Av Amália Rodrigues) (X) R Vasco Santana,,38.7974247709396,-9.18294011065934,,,,
61_2064,,Odivelas (Av Amália Rodrigues) (X) R Vasco Santana,,38.7979191562275,-9.18379323194332,,,,
61_2066,,Odivelas (Av Amália Rodrigues 10) Restaurante,,38.7969439440029,-9.18078261595494,,,,
61_2098,,Odivelas (Av Amália Rodrigues 55),,38.7971978777957,-9.17989987125738,,,,
61_198,,Odivelas (Av Amália Rodrigues 7),,38.7970212866022,-9.18009113539256,,,,
61_2067,,Odivelas (Av Amália Rodrigues Lte 61),,38.7966566620795,-9.18111844475849,,,,
61_2068,,Odivelas (Av Amália Rodrigues Lte 9),,38.7994094308266,-9.18383767641446,,,,
61_421,,Odivelas (Av D Dinis 106 A),,38.7845659620537,-9.18596484520391,,,,
61_892,,Odivelas (Av D Dinis 12),,38.789638176999,-9.17680940242898,,,,
61_659,,Odivelas (Av D Dinis 2) Praça Táxis,,38.790043724685,-9.17633695384311,,,,
61_377,,Odivelas (Av D Dinis 4),,38.790033229862,-9.17634986044786,,,,
61_396,,Odivelas (Av D Dinis 47) Mercado,,38.7873026226319,-9.17976230025731,,,,
61_432,,Odivelas (Av D Dinis 54) Mercado,,38.787505545497,-9.17950631690041,,,,
61_2069,,Odivelas (Av D Dinis 7),,38.7895909500314,-9.17686748099598,,,,
61_474,,Odivelas (Av D Dinis 77),,38.7866122866692,-9.18248231390756,,,,
61_337,,Odivelas (Av D Dinis 8),,38.7897629610267,-9.17665594609076,,,,
61_434,,Odivelas (Av D Dinis 84),,38.7866090340325,-9.18248898666638,,,,
61_435,,Odivelas (Av D Dinis 86) (X) Serra Luz,,38.7848908764026,-9.18554633994493,,,,
61_2070,,Odivelas (Av D Dinis 9),,38.7895332281845,-9.17693846590835,,,,
61_2145,,Odivelas (Av D Dinis Lte 85),,38.7861749023085,-9.18330047226232,,,,
61_801,,Odivelas (Av Reinaldo Santos) Pav Multiusos,,38.7915221771541,-9.18677889281881,,,,
61_1089,,Odivelas (Av Reinaldo Santos Fte Lte 8),,38.7926181151359,-9.18902897530004,,,,
61_325,,Odivelas (Av Reinaldo Santos Lte 20),,38.7923305781476,-9.1913112802082,,,,
61_649,,Odivelas (Bº Codivel) R Álvaro Campos (Fonte),,38.7957653806729,-9.17192080215724,,,,
61_439,,Odivelas (Bº Codivel) R Álvaro Campos (Fonte),,38.7957377213656,-9.17203381217478,,,,
61_440,,Odivelas (Bº Codivel) R Álvaro Campos 15,,38.7943331907123,-9.17115097940276,,,,
61_437,,Odivelas (Bº Codivel) R Álvaro Campos 15,,38.7943972944899,-9.17095244843286,,,,
61_443,,Odivelas (Bº Codivel) R Ricardo Reis (Jardim),,38.7972259091067,-9.17285843481081,,,,
61_442,,Odivelas (Bº Codivel) R Ricardo Reis (Jardim),,38.797160294095,-9.17265256007868,,,,
61_482,,Odivelas (Bº Codivel) R Tomás Ant Gonzaga Fte 1 B,,38.7975948760641,-9.17270889334906,,,,
61_2071,,Odivelas (Bº Codivel) R Tomás Ant Gonzaga Fte 1 B,,38.7976879200404,-9.17267470563341,,,,
61_174,,Odivelas (Col Cruzeiro) Av Magalhães Coutinho,,38.7919368189003,-9.19396388458512,,,,
61_221,,Odivelas (Col Cruzeiro) Av Magalhães Coutinho (Caf,,38.7919610296015,-9.19274185994233,,,,
61_1268,,Odivelas (Col Cruzeiro) Av Miguel Torga,,38.7876451537967,-9.19138343945625,,,,
61_1095,,Odivelas (Col Cruzeiro) Av Miguel Torga,,38.787725212239,-9.19147099341204,,,,
61_2150,,Odivelas (Col Cruzeiro) Av Miguel Torga (Banco),,38.7879360809283,-9.19037670023838,,,,
61_2147,,Odivelas (Col Cruzeiro) Av Miguel Torga (Banco),,38.7880197364584,-9.19002520431068,,,,
61_2146,,Odivelas (Col Cruzeiro) Av Miguel Torga (Estádio),,38.789799805715,-9.18677808761045,,,,
61_2151,,Odivelas (Col Cruzeiro) Av Miguel Torga (Fte Estád,,38.7895590848569,-9.18688951122343,,,,
61_1096,,Odivelas (Col Cruzeiro) Av Miguel Torga (Igreja),,38.7868582261195,-9.19176566423844,,,,
61_1267,,Odivelas (Col Cruzeiro) Av Miguel Torga (Igreja),,38.7865971240823,-9.19167343423121,,,,
61_1027,,Odivelas (Col Cruzeiro) R Alf Costa (Churrasqueira,,38.7884483118062,-9.1910607864157,,,,
61_1460,,Odivelas (Col Cruzeiro) R Alf Costa (Esc),,38.7910922331108,-9.19213959190223,,,,
61_1088,,Odivelas (Col Cruzeiro) R Alf Costa (Esc),,38.7913051573727,-9.19218259282478,,,,
61_1356,,Odivelas (Col Cruzeiro) R Alf Costa (Farmácia),,38.7886225102835,-9.19112968373567,,,,
61_2149,,Odivelas (Col Cruzeiro) R Alf Costa (Frutaria),,38.7898196016346,-9.19161022776977,,,,
61_1026,,Odivelas (Col Cruzeiro) R Alf Costa (X) R Crist Co,,38.7900151888724,-9.19176588668964,,,,
61_94,,Odivelas (Col Cruzeiro) R Mário Moreira,,38.791057598201,-9.19331283096766,,,,
61_383,,Odivelas (Col Cruzeiro) R Mário Moreira,,38.7910927684855,-9.19328351864331,,,,
61_629,,Odivelas (Esc Ant Gedeão),,38.7896998112727,-9.19316723090384,,,,
61_1687,,Odivelas (Metro),,38.792112605231,-9.17190909074821,,,,
61_462,,Odivelas (Metro),,38.7925475731051,-9.17271548580079,,,,
61_2107,,Odivelas (Metro),,38.792413226342,-9.17353218999734,,,,
61_460,,Odivelas (Metro),,38.7925439272019,-9.1727361223516,,,,
61_458,,Odivelas (Metro),,38.7924232846757,-9.1720067453775,,,,
61_330,,Odivelas (Metro),,38.7924684369393,-9.17318138689182,,,,
61_464,,Odivelas (Metro),,38.7924642251374,-9.1732081482971,,,,
61_469,,Odivelas (Metro),,38.7926273961165,-9.17240938012566,,,,
61_1681,,Odivelas (Metro) R Almeida Garrett 12,,38.7922825225855,-9.17228157555551,,,,
61_450,,Odivelas (Qta Mendes) Pct Tomaz Anunciação,,38.7959493494108,-9.18427921945672,,,,
61_448,,Odivelas (Qta Mendes) R Anunciação 17,,38.7958818898677,-9.18319268996293,,,,
61_451,,Odivelas (Qta Mendes) R Anunciação 7,,38.79601211291,-9.18048255501149,,,,
61_449,,Odivelas (Qta Mendes) R Anunciação Fte 17,,38.7959065627853,-9.18251579978385,,,,
61_452,,Odivelas (Qta Mendes) R Anunciação Fte 5,,38.7959400456654,-9.18000801585008,,,,
61_454,,Odivelas (Qta Mendes) R Aquilino Ribeiro (Cruz Ver,,38.7955145189606,-9.17953803163741,,,,
61_925,,Odivelas (Qta Mendes) R Aquilino Ribeiro (Cruz Ver,,38.7955120802762,-9.17954033744159,,,,
61_382,,Odivelas (Qta Nova) R João Castro Fte 7 B,,38.7988445935195,-9.17966877845571,,,,
61_381,,Odivelas (Qta Nova) R João Castro Lte 10,,38.7988210014161,-9.17969053649616,,,,
61_1304,,Odivelas (Qta Nova) R Vieira Silva 12 B,,38.8001325234039,-9.17973964297268,,,,
61_1314,,Odivelas (Qta Nova) R Vieira Silva 15,,38.8001882305073,-9.17824975283924,,,,
61_1303,,Odivelas (Qta Nova) R Viera Silva Lte 6,,38.8001934996035,-9.17813661823358,,,,
61_1299,,Odivelas (Qta Nova) Supermercado,,38.7984139840016,-9.17807772006871,,,,
61_1316,,Odivelas (Qta Nova) Supermercado,,38.7983681086678,-9.17819838338243,,,,
61_1313,,Odivelas (Qta Nova) Vieira Silva Lte 8,,38.8001371191776,-9.17955101043084,,,,
61_456,,Odivelas (R Aires Ornelas),,38.7855085949888,-9.18161078044772,,,,
61_455,,Odivelas (R Aires Ornelas),,38.7854707248036,-9.1816650812634,,,,
61_447,,Odivelas (R Aires Ornelas) Ponte,,38.785294740959,-9.17981541742741,,,,
61_445,,Odivelas (R Aires Ornelas) Ponte,,38.7853888086178,-9.17989154230724,,,,
61_457,,Odivelas (R Alexandre Braga 4 D) Farmácia,,38.7877790419381,-9.18233863512785,,,,
61_569,,Odivelas (R Alves Redol) (X) R Mirita Casimiro (De,,38.797021121232,-9.17664130992263,,,,
61_1317,,Odivelas (R Alves Redol) Depósito Água,,38.7970468154297,-9.17687713128379,,,,
61_441,,Odivelas (R Alves Redol 39),,38.7961800700316,-9.17526791276349,,,,
61_438,,Odivelas (R Alves Redol Lte 37),,38.7962498419,-9.17548480191892,,,,
61_181,,Odivelas (R Aquilino Ribeiro) Fte Café,,38.797404477962,-9.17902335423846,,,,
61_182,,Odivelas (R Aquilino Ribeiro 5) Café,,38.7973662076802,-9.17902062350638,,,,
61_2072,,Odivelas (R Castelinho),,38.7942279004732,-9.18224252354838,,,,
61_465,,Odivelas (R Castelinho) (X) Pcta José Rosalino,,38.7943333876003,-9.18210962728189,,,,
61_467,,Odivelas (R Comb Gde Guerra) Cabaço,,38.7931511071867,-9.18360040148461,,,,
61_468,,Odivelas (R Comb Gde Guerra Lte 112) Cabaço,,38.7926200493208,-9.18285044567604,,,,
61_563,,Odivelas (R Combatentes Ultramar 66),,38.7970746354457,-9.18561185448075,,,,
61_562,,Odivelas (R Combatentes Ultramar 81),,38.797612209115,-9.18615421445638,,,,
61_2073,,Odivelas (R D Francisco Almeida Lte 3),,38.799903390273,-9.18379378571054,,,,
61_2074,,Odivelas (R Domingos Sequeira 4),,38.7940246887957,-9.17774873919329,,,,
61_2075,,Odivelas (R Domingos Sequeira 7 A),,38.7945592525857,-9.17728255365221,,,,
61_580,,Odivelas (R Egas Moniz) Centro Comercial,,38.7961264918133,-9.17419074686616,,,,
61_459,,Odivelas (R Gen Alves Ro‡adas 38),,38.7927858505762,-9.16958711425113,,,,
61_471,,Odivelas (R Gen Alves Ro‡adas Fte 38),,38.7930498324395,-9.16917234786395,,,,
61_475,,Odivelas (R Guilh Gomes Fernandes) (X) F Cunha,,38.7905436330675,-9.17847408989547,,,,
61_417,,Odivelas (R Guilh Gomes Fernandes) Arcadas,,38.7900052598484,-9.17561437818334,,,,
61_2234,,Odivelas (R Guilh Gomes Fernandes) Paços Concelho,,38.790430820936,-9.17956834228556,,,,
61_472,,Odivelas (R Guilh Gomes Fernandes 16) Arcada,,38.7901604223836,-9.1757688887725,,,,
61_618,,Odivelas (R Guilh Gomes Fernandes 18) Arcada,,38.790253122776,-9.17586593235568,,,,
61_473,,Odivelas (R Guilh Gomes Fernandes 30),,38.790802106003,-9.17697449068485,,,,
61_476,,Odivelas (R Guilh Gomes Fernandes 88 A) Instituto,,38.7905862428214,-9.18078600795716,,,,
61_200,,Odivelas (R Guilh Gomes Fernandes 9) Arcada,,38.7896948666868,-9.17527654557822,,,,
61_2104,,Odivelas (R Guilh Gomes Fernandes 9) Arcada,,38.7896018044507,-9.17516885596917,,,,
61_477,,Odivelas (R Heróis Chaimite 7),,38.7944246583764,-9.16904036476084,,,,
61_478,,Odivelas (R Heróis Chaimite Fte 7),,38.7944184582495,-9.16901716480451,,,,
61_594,,Odivelas (R Jorge Sena) Centro Comercial,,38.7960882994751,-9.17759707787594,,,,
61_1327,,Odivelas (R Jorge Sena) Centro Comercial,,38.7961964296256,-9.17754663912699,,,,
61_2076,,Odivelas (R M Caldas Xavier) Centro Comercial,,38.791057249045,-9.17632356459618,,,,
61_463,,Odivelas (R M Caldas Xavier 19 A),,38.7918837006949,-9.17309511505516,,,,
61_599,,Odivelas (R M Caldas Xavier 55 A) Centro Comercia,,38.7911718698141,-9.17612281799172,,,,
61_444,,Odivelas (R Norberto Oliveira),,38.7960678962318,-9.16924809895404,,,,
61_446,,Odivelas (R Norberto Oliveira),,38.7960548201714,-9.16919980593563,,,,
61_2152,,Odivelas (R Prof Dr Egas Moniz) Centro Comercial,,38.7953782197029,-9.17401886813497,,,,
61_2081,,Odivelas (R Prof Dr Egas Moniz) Metro,,38.793364416148,-9.17391038363793,,,,
61_2079,,Odivelas (R Prof Dr Egas Moniz) Metro,,38.7942905022446,-9.17359387204813,,,,
61_2078,,Odivelas (R Prof Dr Egas Moniz) Metro,,38.7942879565999,-9.17359320358497,,,,
61_470,,Odivelas (R Prof Dr Egas Moniz 7),,38.79231355238,-9.1752196728445,,,,
61_466,,Odivelas (R Prof Olga Passos) (X) Cabaço,,38.7930948679861,-9.18290039731135,,,,
61_479,,Odivelas (R Roque Gameiro 14),,38.7940598510204,-9.17597954032254,,,,
61_480,,Odivelas (R Roque Gameiro 9),,38.7937798876864,-9.17598361887456,,,,
61_557,,Odivelas (R Tomás Ant Gonzaga) Fte Dep Água,,38.798607392856,-9.17380818299359,,,,
61_526,,Odivelas (R Tomás Ant Gonzaga) Fte Dep Água,,38.7985707238136,-9.17359054275119,,,,
61_988,,Olivais (Al Oceanos) (Jardins Jacarandás),,38.778752238058,-9.09531021014909,,,,
61_985,,Olivais (Al Oceanos) (X) R Ganges,,38.7806651874912,-9.09646537707454,,,,
61_981,,Olivais (Al Oceanos) (X) R Rio Pérolas,,38.7838253947029,-9.0984757588069,,,,
61_1324,,Olivais (Alam Oceanos) Est Serviço,,38.7760241660919,-9.0952102557896,,,,
61_1373,,Olivais (Alam Oceanos) Porta Norte,,38.7761436337789,-9.09502708558803,,,,
61_1372,,Olivais (Av D João II),,38.7743176432555,-9.09714569328746,,,,
61_1586,,Olivais (Av D João II) (X) R Mar Vermelho,,38.7712544446515,-9.09768028981858,,,,
61_1371,,Olivais (Av D João II) (X) R Mar Vermelho,,38.7714606725106,-9.09739906519573,,,,
61_1585,,Olivais (Av D.João II),,38.7742963003143,-9.09742928622931,,,,
61_481,,Olival Basto,,38.7900342703401,-9.16858770666417,,,,
61_1069,,Olival Basto,,38.789514573207,-9.1683470749837,,,,
61_2464,,Olival Basto (Av Forças Armadas),,38.7931401069134,-9.15934003611212,,,,
61_2088,,Olival Basto (R Açores),,38.7919264455246,-9.16545299461113,,,,
61_2469,,Olival Basto (R Açores 20),,38.7916171536508,-9.16475701861102,,,,
61_2462,,Olival Basto (R Açores 8),,38.7910113183835,-9.16341377465944,,,,
61_2089,,Olival Basto (R Açores Fte 6),,38.8066828664,-9.14058641158464,,,,
61_2091,,Olival Basto (R Guiné Fte 15),,38.8064014715708,-9.14056526354013,,,,
61_2094,,Olival Basto (R Timor) Escolas,,38.8056469426737,-9.14093064932037,,,,
61_2480,,Olival de Basto (Av Forças Armadas),,38.791457352941,-9.16436210747257,,,,
61_2478,,Olival de Basto (R Macau 5),,38.7895648189438,-9.16685525666562,,,,
61_2092,,Olival de Basto (R Macau),,38.789767055078,-9.16738114657358,,,,
61_2093,,Olival de Basto (R S Tomé e Principe 30),,38.7901753800174,-9.16607846019599,,,,
61_2479,,Olival de Basto (R S Tomé e Principe 36),,38.7907612171374,-9.1656478790103,,,,
61_1101,,P¢voa Sto AdriÆo (Jardim),,38.7999145166331,-9.15975554674224,,,,
61_1104,,P¢voa Sto AdriÆo (Parque Jogos),,38.7978479011777,-9.16161082151498,,,,
61_1107,,P¢voa Sto AdriÆo (R Comandante Sacadura Cabral Lt,,38.8068377518129,-9.15742923598542,,,,
61_1103,,P¢voa Sto AdriÆo (R Gen Alves Ro‡adas 13),,38.7940621408461,-9.16701504257486,,,,
61_1098,,P¢voa Sto AdriÆo (R Gen Alves Ro‡adas 2),,38.7951332222714,-9.16420531002115,,,,
61_539,,P¢voa Sto AdriÆo (Zona Ind£strial),,38.8045402030108,-9.1576253352411,,,,
61_1108,,P¢voa Sto AdriÆo 99,,38.8022397838698,-9.15811755245508,,,,
61_486,,Paiã (Esc Agrícola),,38.7709218761611,-9.20054863678731,,,,
61_485,,Paiã (Esc Agrícola),,38.7711283833253,-9.20058039206978,,,,
61_487,,Paiã (R Luís Moura) Café,,38.7806924141834,-9.20803078574875,,,,
61_548,,Paiã (R Pedro Alv Cabral) (X),,38.776541971393,-9.20571266451642,,,,
61_318,,Paiã (R Pedro Alv Cabral) (X),,38.7767217452534,-9.20578965722876,,,,
61_433,,Patameiras (Cemitério),,38.7857972351098,-9.19276965468048,,,,
61_489,,Patameiras (Cemitério),,38.785897012909,-9.1928887214535,,,,
61_2090,,Patameiras (Cemitério) Lateral,,38.7859791468635,-9.19386644583868,,,,
61_490,,Patameiras (Fte Qta Cedros) (X) R Mário Moreira,,38.789107239647,-9.19415886611494,,,,
61_2095,,Patameiras (Odivelas Park),,38.7813717542556,-9.19331086863148,,,,
61_2096,,Patameiras (Odivelas Park),,38.7812925853351,-9.1931938250404,,,,
61_492,,Patameiras (Odivelas Park),,38.7803429178162,-9.1924640600934,,,,
61_491,,Patameiras (Odivelas Park),,38.7801143425853,-9.19282806769929,,,,
61_493,,Patameiras (Qta Cedros),,38.7889667292883,-9.19403426699366,,,,
61_497,,Patameiras (R Ant Feliciano Castilho 2),,38.7845285841484,-9.18550704422165,,,,
61_430,,Patameiras (R Ant Quental 15),,38.7842706144349,-9.18946034003126,,,,
61_496,,Patameiras (R Ant Quental 28),,38.7845709271632,-9.19065236256983,,,,
61_498,,Patameiras (R Augusto Gil 16) Pombais,,38.7871326250407,-9.18438289686028,,,,
61_499,,Patameiras (R Paiã 12),,38.7830949535566,-9.18787458657457,,,,
61_500,,Patameiras (R Paiã 9 A),,38.7831607397194,-9.18785713173659,,,,
61_501,,Patameiras (R Paiã Fte 36),,38.7852939327891,-9.1868214773494,,,,
61_2382,,Patameiras (Rotunda Cemitério),,38.7860086046964,-9.19378275772629,,,,
61_206,,Pedernais (R 8 Março),,38.799727167569,-9.19964548926036,,,,
61_502,,Pedernais (R Alfredo Ruas),,38.8059077680246,-9.2011848047682,,,,
61_503,,Pedernais (R Alfredo Ruas),,38.8061976341037,-9.20128307092748,,,,
61_2100,,Pedernais (R Aurélio Paz Reis),,38.8066029357306,-9.20598072068271,,,,
61_2097,,Pedernais (R Aurélio Paz Reis),,38.8066285267636,-9.20582813282729,,,,
61_2080,,Pedernais (R Aurélio Paz Reis) (X) R Oliv Martins,,38.8067047164425,-9.20862246804288,,,,
61_2085,,Pedernais (R Aurélio Paz Reis) (X) R Oliv Martins,,38.8066680538077,-9.20849756051814,,,,
61_2046,,Pedernais (R Cerca Lte 22),,38.7997058059338,-9.198296520687,,,,
61_2047,,Pedernais (R Liberdade) (X),,38.7994917311545,-9.19859171204258,,,,
61_1072,,Pinteus (Placa),,38.8710941613807,-9.15005258192027,,,,
61_1071,,Pinteus (Placa),,38.8710948859356,-9.15005303783839,,,,
61_1073,,Pinteus (R Alexandre Herculano),,38.8665040010238,-9.15258988695091,,,,
61_1188,,Pinteus (R Alexandre Herculano),,38.866380949673,-9.15260613781168,,,,
61_1075,,Pinteus (R Alfredo Caldeira),,38.868374363374,-9.15095950742978,,,,
61_1077,,Pinteus (R Humb Delgado 2),,38.8680815011466,-9.15093944235226,,,,
61_1081,,Pinteus (X) Manjoeira,,38.8592685829503,-9.15115452390152,,,,
61_1079,,Pinteus (X) Manjoeira,,38.8591483254247,-9.15132678825621,,,,
61_1078,,Pinteus (X) Manjoeira,,38.8591407170355,-9.15103911167412,,,,
61_1733,,Pirescoxe (Lgo Pirescoxe) Pq Infantil,,38.8392569595372,-9.09325233013422,,,,
61_1734,,Pirescoxe (R Castelo) Minimercado,,38.8392498347488,-9.09246823271464,,,,
61_1735,,Pirescoxe (R D Pedro V) Qta Castelo,,38.838076472519,-9.09243835925826,,,,
61_1736,,Pirescoxe (R D Pedro V Lte 3),,38.8380886774486,-9.09266562574513,,,,
61_362,,Pirescoxe (Urb Qta Castelo) R José A Gouveia Fte ,,38.8373806646222,-9.09276459013918,,,,
61_1862,,Pirescoxe (Urb Qta Castelo) R José A Gouveia Lte ,,38.8373302927845,-9.09264328428955,,,,
61_365,,Pirescoxe (Urb Qta Castelo) R José A Gouveia Lte ,,38.8356827305443,-9.09184321978132,,,,
61_361,,Pirescoxe (Urb Qta Castelo) R José A Gouveia Lte ,,38.8353825049922,-9.0915704566674,,,,
61_505,,Ponte Bica (Curva Morte),,38.810314979431,-9.20524374985987,,,,
61_504,,Ponte Bica (Curva Morte),,38.8104414628845,-9.2052668506812,,,,
61_508,,Ponte Bica (R Olivença 3),,38.8100264700866,-9.20439413965829,,,,
61_509,,Ponte Bica (R Olivença 8),,38.8098804388391,-9.2043841604158,,,,
61_506,,Ponte Bica 108 (EN 250/2),,38.8082334231556,-9.20346735919132,,,,
61_507,,Ponte Bica 113 (EN 250/2),,38.8085757012125,-9.20367881672722,,,,
61_1742,,Ponte Frielas,,38.8182648693861,-9.14938755199238,,,,
61_1110,,Ponte Frielas (Caf‚),,38.8150842882689,-9.15525197180853,,,,
61_1109,,Ponte Frielas (Café),,38.814011836587,-9.15563614041113,,,,
61_1737,,Ponte Frielas (Est Serviço),,38.8157171587146,-9.15321374719367,,,,
61_1738,,Ponte Frielas (Fte Viveiros),,38.8184685426305,-9.14922681993009,,,,
61_1739,,Ponte Frielas (Ponte Rio Trancão),,38.8156030762565,-9.15384073389959,,,,
61_1113,,Ponte Frielas (X) R David José Chitas,,38.8163169956559,-9.1547569362315,,,,
61_1115,,Ponte Rio TrancÆo,,38.888024987072,-9.1254280617967,,,,
61_1114,,Ponte Rio Trancão,,38.8871855849734,-9.12616926967602,,,,
61_513,,Pontinha (Av S Pedro) Escola,,38.7645513597352,-9.20004915506158,,,,
61_152,,Pontinha (Metro),,38.7617868941926,-9.19633725693896,,,,
61_274,,Pontinha (Metro),,38.7619911114868,-9.1973615267673,,,,
61_153,,Pontinha (Metro),,38.7611450529591,-9.19688549837402,,,,
61_271,,Pontinha (Metro),,38.7614080112932,-9.19746751152553,,,,
61_280,,Pontinha (Metro),,38.761159685209,-9.19704121812804,,,,
61_1034,,Pontinha (Metro),,38.7611719497229,-9.19717173989258,,,,
61_121,,Pontinha (Metro),,38.7618895901674,-9.19737736169719,,,,
61_514,,Pontinha (Pça Luís Camões) PSP,,38.7675398996719,-9.19853120640244,,,,
61_515,,Pontinha (Pça Luís Camões) PSP,,38.7671627015884,-9.19863586766257,,,,
61_517,,Pontinha (R Cidade Horta 15),,38.7662737078683,-9.20125500995607,,,,
61_518,,Pontinha (R Regimento Engenharia 1),,38.76493887498,-9.1981179241269,,,,
61_512,,Pontinha (R Regimento Engenharia 1),,38.7652001396761,-9.19827927610764,,,,
61_519,,Pontinha (R Sto André) Centro Comercial,,38.764962135807,-9.19932512632271,,,,
61_522,,Pontinha (R Sto Eloy) Est Serviço,,38.7679177225274,-9.20470539570456,,,,
61_520,,Pontinha (R Sto Eloy 40),,38.7672543763917,-9.20204063814499,,,,
61_278,,Pontinha (R Sto Eloy 5) Esc Gonçalves Crespo,,38.7679298017872,-9.20471520590315,,,,
61_2413,,Portela (Av Descobrimentos),,38.7812854302601,-9.10706673458953,,,,
61_2416,,Portela (Av Descobrimentos) (X) Pcta Sto António,,38.7812857034552,-9.10705675188854,,,,
61_1377,,Portela (Av Descobrimentos) (X) R Escritores,,38.7812563305523,-9.10775594600538,,,,
61_2415,,Portela (Av Descobrimentos) (X) R Fernão Magalhães,,38.7830744017489,-9.11397054980696,,,,
61_1575,,Portela (Av Descobrimentos) (X) Seminário,,38.7812698507606,-9.10743041158012,,,,
61_1567,,Portela (Av Descobrimentos) Jardim Parque,,38.7821062282818,-9.11390281862358,,,,
61_1744,,Portela (Av Descobrimentos) Rot Centro Comercial,,38.7810694425534,-9.11175977479485,,,,
61_1454,,Portela (Av Escolas) Esc Gaspar Correia,,38.7855760023519,-9.11414917836666,,,,
61_1796,,Portela (Av Escolas) Pq Manutenção,,38.7847627464368,-9.11587182353054,,,,
61_1319,,Portela (Av Ralis),,38.7824089268979,-9.11821860785722,,,,
61_1381,,Portela (Av República) (X) R Almirante Reis,,38.7836099808207,-9.11542200520779,,,,
61_1971,,Portela (Av República) (X) R Almirante Reis,,38.7836165960345,-9.11526285023628,,,,
61_1974,,Portela (Av República) (X) R Vasco Santana,,38.7838679068666,-9.10971654714286,,,,
61_1693,,Portela (Av Republica) Escola C+S Vasco Gama,,38.7837416661721,-9.11231138359252,,,,
61_1379,,Portela (Av República) Escola C+S Vasco Gama,,38.7837449482561,-9.11222766402081,,,,
61_2230,,Portela (Av República) Piscinas,,38.7838372839302,-9.11032789967126,,,,
61_1378,,Portela (R Escritores),,38.7822994428605,-9.10845072938459,,,,
61_2231,,Portela (R Escritores Lte 136),,38.7826505029495,-9.10847860900686,,,,
61_1694,,Portela (R Mouz Albuquerque) (x) R Escola,,38.7856179427305,-9.11143216559929,,,,
61_1543,,Portela (R Mouz Alburquerque) (x) R Escola,,38.7855375004691,-9.11142674589439,,,,
61_2414,,Portela (R Mouzinho Albuquerque),,38.7855026770703,-9.11142439970791,,,,
61_1748,,Portela (R Vasco Gama),,38.7851821931082,-9.11704977625065,,,,
61_1747,,Portela (R Vasco Gama) Fte Univ Internacional,,38.7874539201487,-9.11579023087631,,,,
61_1749,,Portela (R Vasco Gama) Lidl,,38.7851721356543,-9.11703247000205,,,,
61_1750,,Portela (R Vasco Gama) Qta da Vitória,,38.7874492636752,-9.11579341689671,,,,
61_1948,,Portela (R Vasco Gama) Ralis,,38.7817303857744,-9.1192230647649,,,,
61_1085,,Portela (X),,38.9055633101437,-9.07142795319039,,,,
61_1084,,Portela (X),,38.9055461260612,-9.07127464499508,,,,
61_1979,,Portela Azóia (Av 11 Março),,38.8370629481326,-9.09674891425488,,,,
61_1981,,Portela Azóia (Av 11 Março Lte 37),,38.8389145538805,-9.10074516580159,,,,
61_1980,,Portela Azóia (Av 11 Março Lte 66),,38.8375247971558,-9.09879377515767,,,,
61_1760,,Portela Azóia (Av 25 Abril),,38.8364002651957,-9.10178051316926,,,,
61_1755,,Portela Azóia (Av 25 Abril) (X) Av 11 Março,,38.8389506587118,-9.10116381562994,,,,
61_1756,,Portela Azóia (Av 25 Abril) (X) Bº S Lourenço,,38.8390210691099,-9.10115111062049,,,,
61_1757,,Portela Azóia (Av 25 Abril) (X) R Pedro Soares,,38.8366041268727,-9.10175012885374,,,,
61_1758,,Portela Azóia (Av 25 Abril Fte Lte 40B),,38.8405952947191,-9.10080414986087,,,,
61_1759,,Portela Azóia (Av 25 Abril Lte 40 B),,38.8401970723744,-9.10093380182635,,,,
61_1986,,Portela Azóia (Av Inf Santo),,38.8398284388495,-9.09500602813809,,,,
61_1762,,Portela Azóia (Av Inf Santo) Chafariz,,38.8433144546507,-9.09528731625392,,,,
61_1985,,Portela Azóia (Av Inf Santo Lte 18),,38.8446700888063,-9.09603444856098,,,,
61_1763,,Portela Azóia (Av Inf Santo Lte 24),,38.8430845813592,-9.09525621055603,,,,
61_1987,,Portela Azóia (Av Inf Santo Lte 76),,38.8371736827021,-9.09583669365101,,,,
61_1984,,Portela Azóia (EN 115) Av Inf Santo (Fte Cemitério,,38.8454556055598,-9.09794523487992,,,,
61_1983,,Portela Azóia (EN 115) Parque Urbano,,38.8455522859212,-9.09971869660569,,,,
61_1982,,Portela Azóia (R 25 Abril Frente Lte 54),,38.8434519413566,-9.10107409845941,,,,
61_1769,,Portela Azóia (R Alf Vit Costa) Restaurante,,38.8365341357948,-9.09603362122223,,,,
61_1770,,Portela Azóia (R Alf Vit Costa) Viad AE (Quiosque),,38.8365328625497,-9.09603400303245,,,,
61_1772,,Portela Azóia (R Belo Horizonte Fte Lte 51),,38.8419416298038,-9.09633618643353,,,,
61_1773,,Portela Azóia (R Belo Horizonte Lte 51),,38.8419999288226,-9.09631726073648,,,,
61_1771,,Portela Azóia (R Bom Jesus),,38.8438347348819,-9.09376398496572,,,,
61_1774,,Portela Azóia (R Chãos Sto Amaro Fte Lte 63),,38.841787476603,-9.09982413030659,,,,
61_1776,,Portela Azóia (R Chãos Sto Amaro Fte Lte 9),,38.8401960725123,-9.0969687905439,,,,
61_1777,,Portela Azóia (R Chãos Sto Amaro Lte 63),,38.8418046039639,-9.09985654967651,,,,
61_1775,,Portela Azóia (R Chãos Sto Amaro Lte 9),,38.8403341176415,-9.09727668398889,,,,
61_1778,,Portela Azóia (R Cruzinha Fte Lte 66),,38.8447885681498,-9.09561130943688,,,,
61_1925,,Portela Azóia (R Cruzinha Lte 66),,38.8447710292467,-9.09547818469679,,,,
61_1415,,Portela Azóia (R Inf D Henrique),,38.8339197162909,-9.09686376711571,,,,
61_1414,,Portela Azóia (R Inf D Henrique) (X) R Paraíso,,38.8343200950595,-9.09671075420608,,,,
61_1412,,Portela Azóia (R Rosa Branca) Parque Desportivo,,38.8358222999993,-9.10327236889956,,,,
61_2205,,Portela Azóia (R Rosa Branca Lte 3),,38.8358614037159,-9.10339281388201,,,,
61_524,,Porto Paiã (Escola),,38.7787082879945,-9.20642618676985,,,,
61_523,,Porto Paiã (Escola),,38.7783120961385,-9.20611097554888,,,,
61_525,,Porto Paiã (R Luís Moura),,38.7805501982611,-9.20803826321761,,,,
61_130,,Póvoa St Adrião (X) Casal Monte,,38.8061235656003,-9.16808943103487,,,,
61_1782,,Póvoa Sta Iria (EN 10) (X) Bº Bolonha,,38.8556333097465,-9.07113812694918,,,,
61_1780,,Póvoa Sta Iria (EN 10) Aqued Águas Livres,,38.8610301471101,-9.06520364342471,,,,
61_1783,,Póvoa Sta Iria (EN 10) Bº Bolonha Lte 23,,38.8556293207902,-9.07114259377663,,,,
61_1090,,Póvoa Sta Iria (EN 10) Café,,38.8651036043219,-9.06046011734592,,,,
61_1091,,Póvoa Sta Iria (EN 10) Café,,38.8652473678545,-9.06042460571656,,,,
61_1092,,Póvoa Sta Iria (EN 10) Trav Escola,,38.8605475016192,-9.06547356080263,,,,
61_1094,,Póvoa Sta Iria (Estação),,38.8590669888317,-9.06394078125279,,,,
61_1093,,Póvoa Sta Iria (Estação),,38.8593132097834,-9.06373090712957,,,,
61_1158,,Póvoa Sta Iria (Estação),,38.8591539515406,-9.06384779925043,,,,
61_1784,,Póvoa Sta Iria (R Ant Aleixo) Pcta Caniços,,38.8666892740027,-9.06083766345129,,,,
61_1785,,Póvoa Sta Iria (R Ant Aleixo) Pcta Caniços,,38.8666232984761,-9.06076656885689,,,,
61_1480,,Póvoa Sta Iria (R Bomb Vol) (X) R 28 Setembro,,38.8613763468848,-9.06517896653323,,,,
61_2059,,Póvoa Sta Iria (R Bomb Vol) Viaduto EN 10,,38.8614065370604,-9.06522823468582,,,,
61_2058,,Póvoa Sta Iria (R Républica) Terminal,,38.8606046722123,-9.0636254369016,,,,
61_1787,,Póvoa Sta Iria (R República 121),,38.8621406399841,-9.06261699689311,,,,
61_1559,,Póvoa Sta Iria (X) Zona Indústrial,,38.8628563038455,-9.0582438664361,,,,
61_1963,,Póvoa Sta Iria (X) Zona Indústrial,,38.8626376557358,-9.05846919764663,,,,
61_2471,,Póvoa Sto Adrião (Av 25 Abril) (X) Pcta República,,38.7982706560792,-9.16317279674601,,,,
61_2470,,Póvoa Sto Adrião (Av 25 Abril) Cpo Jogos,,38.7978283020581,-9.1624944319079,,,,
61_2465,,Póvoa Sto Adrião (Centro Saúde),,38.8053313232602,-9.16391422224333,,,,
61_2472,,Póvoa Sto Adrião (Dr Mário Sacramento) Centro Dia,,38.7992902760784,-9.16377488381512,,,,
61_2473,,Povoa Sto Adrião (Dr Mario Sacramento Lte B1),,38.7996643244261,-9.16395986718094,,,,
61_1102,,Póvoa Sto Adrião (Parque Jogos),,38.7979247682426,-9.16152833879215,,,,
61_1100,,Póvoa Sto Adrião (R Almirante Gago Coutinho 24),,38.7994294359852,-9.16013033252709,,,,
61_1099,,Póvoa Sto Adrião (R Almirante Gago Coutinho 77),,38.800975568153,-9.15897109985562,,,,
61_2474,,Póvoa Sto Adrião (R Comadante Augusto Castilho Lt,,38.8007840780948,-9.1625179857309,,,,
61_1106,,Póvoa Sto Adrião (R Comandante Sacadura Cabral Lt,,38.8065236585097,-9.15746582845449,,,,
61_528,,Póvoa Sto Adrião (R Dr Jaime Cortesão 6),,38.7961414766261,-9.16540486996649,,,,
61_529,,Póvoa Sto Adrião (R Dr Jaime Cortesão Fte 6),,38.7961266080427,-9.16550595863636,,,,
61_1097,,Póvoa Sto Adrião (R Gen Alves Roçadas 1),,38.7955107265961,-9.16388446842915,,,,
61_1105,,Póvoa Sto Adrião (R Gen Alves Roçadas 6),,38.7942568963077,-9.16595190974533,,,,
61_531,,Póvoa Sto Adrião (R Luís Camões) Mármores,,38.8032090470145,-9.15816692721766,,,,
61_530,,Póvoa Sto Adrião (R Luís Camões) Mármores,,38.8032064892823,-9.1581596144112,,,,
61_81,,Póvoa Sto Adrião (R M Albuquerque),,38.8011279994512,-9.16312888234954,,,,
61_533,,Póvoa Sto Adrião (R M Albuquerque 40),,38.8021851608762,-9.16397937196782,,,,
61_532,,Póvoa Sto Adrião (R M Albuquerque 44) Centro Paro,,38.8023518994337,-9.16428525379272,,,,
61_534,,Póvoa Sto Adrião (R Prof Egas Moniz 30),,38.7989955555967,-9.16515071790859,,,,
61_535,,Póvoa Sto Adrião (R Prof Egas Moniz Fte Lte 30),,38.7987792809957,-9.16518695847868,,,,
61_536,,Póvoa Sto Adrião (R Soeiro Pereira Gomes 10),,38.8006328517023,-9.16333190448581,,,,
61_2235,,Póvoa Sto Adrião (Urb Casal Granja) Fte Posto EDP,,38.8046325439891,-9.16784396944583,,,,
61_2236,,Póvoa Sto Adrião (Urb Casal Granja) Posto EDP,,38.80458169103,-9.16767318892298,,,,
61_120,,Póvoa Sto Adrião (X) Casal Monte,,38.8059504894296,-9.16815460282718,,,,
61_538,,Póvoa Sto Adrião (Zona Indústrial),,38.804011678779,-9.15760930123747,,,,
61_2198,,Presa,,38.7829768698722,-9.221076061614,,,,
61_2350,,Presa (Casal da Mira),,38.7829947367354,-9.22108127268553,,,,
61_195,,Presa (Centro Comercial 1),,38.7774837010892,-9.22056005665439,,,,
61_199,,Presa (Centro Comercial 2),,38.7760693791962,-9.22070536716307,,,,
61_2196,,Presa (Centro Comercial),,38.7776884145902,-9.22095576503994,,,,
61_2197,,Presa (Centro Comercial),,38.7757866768641,-9.22029151520558,,,,
61_366,,Presa (Rotunda),,38.7720880483042,-9.21268734223865,,,,
61_543,,Presa (Vale Grande),,38.7857495416996,-9.22320877298871,,,,
61_540,,Presa (X) Casal do Rato,,38.7824908095825,-9.2174470661111,,,,
61_541,,Presa (X) Casal Mira,,38.7843434793911,-9.22069515161655,,,,
61_542,,Presa (X) Casal Mira,,38.783988517851,-9.21994598980552,,,,
61_544,,Presa (X) Casal Rato,,38.7824890017736,-9.21744744303617,,,,
61_545,,Presa (X) Vale Grande,,38.7855690763093,-9.22282803199794,,,,
61_1544,,Prior Velho (Av Severiano Falcão),,38.783519801893,-9.12459837876869,,,,
61_1794,,Prior Velho (Av Severiano Falcão),,38.7859153164052,-9.12388374070243,,,,
61_1793,,Prior Velho (Av Severiano Falcão),,38.7895261146624,-9.12487207661898,,,,
61_1791,,Prior Velho (Av Severiano Falcão),,38.7851873595596,-9.1242366816857,,,,
61_1792,,Prior Velho (Av Severiano Falcão) Cent Insp Periód,,38.7894241013103,-9.12476010448257,,,,
61_2001,,Prior Velho (Av Vasco Gama Fern) (X) R José Santos,,38.7920266296647,-9.11991976895544,,,,
61_1663,,Prior Velho (R Bissau 3A),,38.7910518849878,-9.12340140590499,,,,
61_1556,,Prior Velho (R Cabo Verde),,38.7913408205339,-9.1210799923219,,,,
61_1665,,Prior Velho (R Cidade Beira Lte 12),,38.7905553211094,-9.12467038818437,,,,
61_1384,,Prior Velho (R Guiné),,38.7862166722191,-9.12040045181083,,,,
61_1546,,Prior Velho (R Guiné 1),,38.7898108507337,-9.12016093494904,,,,
61_1501,,Prior Velho (R Joaquim Silva Nogueira),,38.7941309797274,-9.11983690742805,,,,
61_1661,,Prior Velho (R Maestro Lopes Graça) Esc Primária,,38.7923266353829,-9.12304611959274,,,,
61_1806,,Prior Velho (R Nampula),,38.7902978098372,-9.11830973984832,,,,
61_2121,,Prior Velho (R Zeca Afonso Nº. 15),,38.792586791779,-9.12070626112561,,,,
61_1966,,Qta Bela Vista,,38.9084477982581,-9.15815592892849,,,,
61_1965,,Qta Bela Vista,,38.9081727977388,-9.15760708849021,,,,
61_669,,Qta Carrafouchas,,38.8472596613866,-9.16605775596113,,,,
61_668,,Qta Carrafouchas,,38.8473022537815,-9.16591152222826,,,,
61_1116,,Qta Cruz,,38.8604793795729,-9.12403386087762,,,,
61_1117,,Qta Cruz (Fte Café),,38.8605729745944,-9.12367591421325,,,,
61_2432,,Qta Indias (Av Carlos Pinhão) (X) R Mário Viegas,,38.8737769773378,-9.09279432757684,,,,
61_2433,,Qta Indias (Av Carlos Pinhão) (X) R Sofia Mello Br,,38.8748790411395,-9.09345353836384,,,,
61_2434,,Qta Indias (Av Carlos Pinhão) (X) R Sofia Mello Br,,38.8749851177115,-9.09351517751709,,,,
61_2435,,Qta Indias (Av Carlos Pinhão) (X) R Virgílio Ferre,,38.8739030792476,-9.09286755863047,,,,
61_956,,Qta Índias (Av Carlos Pinhão Lte 38),,38.8725784494782,-9.09210811758323,,,,
61_1492,,Qta Índias (Av Carlos Pinhão Lte 53),,38.8726687124883,-9.0921518544053,,,,
61_1270,,Qta Índias (Av José Ant Veríssimo Lte 1),,38.870351495627,-9.09002527499151,,,,
61_1517,,Qta Índias (Av José Ant Veríssimo Lte 12),,38.8702768748412,-9.08997816957656,,,,
61_1488,,Qta Índias (R Rui Luís Gomes 25),,38.8715907580259,-9.09116971492965,,,,
61_1502,,Qta Índias (R Rui Luis Gomes Lte 22),,38.8716638016424,-9.09095555371363,,,,
61_950,,Qta Maranhota (R Capitão Salgueiro Maia),,38.8787682055833,-9.07137832605927,,,,
61_954,,Qta Maranhota (R Miguel Torga),,38.879413203967,-9.0694261341553,,,,
61_1086,,Qta Maranhota (R Miguel Torga),,38.8794620845748,-9.06935460620898,,,,
61_1127,,Qta Nova SÆo Roque,,38.8450974040596,-9.16243656739462,,,,
61_1126,,Qta Nova São Roque,,38.8454179951668,-9.16246432191169,,,,
61_1080,,Qta Piedade (2ª Fase) Fte Papelaria,,38.8636345092342,-9.06508964644939,,,,
61_1434,,Qta Piedade (2ª Fase Lte 40),,38.8661828889936,-9.06420463640012,,,,
61_1752,,Qta Piedade (Av D Vic Af Valente) (X) (R D),,38.865477627991,-9.07138395493922,,,,
61_1807,,Qta Piedade (Av D Vic Af Valente) (X) Pça José Ant,,38.8605726238155,-9.0742984323272,,,,
61_1802,,Qta Piedade (Av D Vic Af Valente) (X) R Amérco Cos,,38.8637415062959,-9.07295490106885,,,,
61_1814,,Qta Piedade (Av D Vic Af Valente) (X) R Amérco Cos,,38.8640583706908,-9.07073211898116,,,,
61_1810,,Qta Piedade (Av D Vic Af Valente) (X) R Ram Curto,,38.8620129502787,-9.07486966820945,,,,
61_2055,,Qta Piedade (Av D Vic Af Valente) Centro Saúde,,38.8623050700159,-9.06774957884959,,,,
61_1821,,Qta Piedade (Av D Vic Af Valente) Esc Secundária,,38.863125797219,-9.06679001231588,,,,
61_1820,,Qta Piedade (Av D Vic Af Valente) Est Serviço,,38.8633152820841,-9.06651213283437,,,,
61_1808,,Qta Piedade (Av D Vic Af Valente) Fte Quiosque,,38.8597719954871,-9.0707190156747,,,,
61_1809,,Qta Piedade (Av D Vic Af Valente) Quiosque,,38.8597726539224,-9.0707152334995,,,,
61_1803,,Qta Piedade (Av D Vic Af Valente 10),,38.8605579011225,-9.07427114783942,,,,
61_1805,,Qta Piedade (Av D Vic Af Valente 3),,38.8623865326142,-9.06770455763,,,,
61_2101,,Qta Piedade (Avª Af Valente) (X) R França Borges,,38.8651123712679,-9.06663378177319,,,,
61_1666,,Qta Piedade (Fte Tissot),,38.8658963157729,-9.07102217794274,,,,
61_1203,,Qta Piedade (Papelaria),,38.863739849879,-9.06488426160306,,,,
61_1751,,Qta Piedade (R Alcino Oliveira Silva),,38.8670726593082,-9.06785520633842,,,,
61_1433,,Qta Piedade (R Alviela Lte 31),,38.8659000027786,-9.06440084073598,,,,
61_1743,,Qta Piedade (R Alviela Lte 37),,38.867289233273,-9.06417030281255,,,,
61_1143,,Qta Piedade (R Américo Costa)  Bº Chepsi,,38.863593575748,-9.06863826184976,,,,
61_1811,,Qta Piedade (R Ant França Borges) Pq Infantil,,38.8679311236332,-9.06386427413263,,,,
61_1992,,Qta Piedade (R Ant França Borges 60),,38.8661615216106,-9.06587426827009,,,,
61_1740,,Qta Piedade (R Ant França Borges Lte 10),,38.867941698182,-9.06390402701633,,,,
61_1711,,Qta Piedade (R Ant França Borges Lte 60),,38.8662179166554,-9.06579024418981,,,,
61_2050,,Qta Piedade (R Antero Quental),,38.8653651995877,-9.06900330173103,,,,
61_1698,,Qta Piedade (R Franc Per Junior) (X) Pcta Alf Cunh,,38.8668666234936,-9.06868256288027,,,,
61_1817,,Qta Piedade (R Franc Per Junior) (X) Pcta Alf Cunh,,38.8667345335064,-9.06913456429038,,,,
61_1818,,Qta Piedade (R José Afonso) (X) Av D Af Valente,,38.8591527010066,-9.07230570034168,,,,
61_1819,,Qta Piedade (R José Afonso Lte 78),,38.8586056113705,-9.07265560885997,,,,
61_2369,,Qta Piedade (R Mata),,38.8666638091042,-9.07025970347505,,,,
61_2051,,Qta Piedade (R Tiago Silva Santos Lte 105A),,38.8680962360348,-9.06924510511351,,,,
61_1812,,Qta Piedade (Rua Américo Costa) Escola Secundária,,38.8639538676212,-9.07149267070091,,,,
61_1508,,Qta Piedade 2 Fase (Av D Vicente Af Valente) Polid,,38.8650827515267,-9.06654143471204,,,,
61_546,,Qta Pretas (Depósito Água),,38.7929838001956,-9.21158391184954,,,,
61_547,,Qta Pretas (Fte Depósito Água),,38.7929841985614,-9.21157587270808,,,,
61_1128,,Quintanilho (R Movimento Forças Armadas 1),,38.8646951175703,-9.09939688182356,,,,
61_1129,,Quintanilho (R Movimento Forças Armadas 1),,38.8647284162387,-9.09934218382969,,,,
61_2031,,Quintanilho (X) (R Fernando Lopes Graça),,38.8641898644437,-9.10135547919542,,,,
61_2030,,Quintanilho (X) (R Fernando Lopes Graça),,38.864162241819,-9.1014800222649,,,,
61_996,,Ramada (Bº Bons Dias),,38.8044239141854,-9.18690259851887,,,,
61_552,,Ramada (Bº Bons Dias) Campo Jogos,,38.806264327566,-9.18887266473691,,,,
61_937,,Ramada (Bº Bons Dias) R Bernardim Ribeiro,,38.8062331498062,-9.19000743624928,,,,
61_1068,,Ramada (Bº Bons Dias) R Bernardim Ribeiro Fte 17,,38.8060416090148,-9.19036347560846,,,,
61_558,,Ramada (Bº Bons Dias) R Carolina Michaelis Fte 4,,38.8041159296026,-9.18762960185479,,,,
61_2302,,Ramada (Bº Bons Dias) R Guilh Marconi (PT),,38.8049937186833,-9.1928053084711,,,,
61_367,,Ramada (Bº Bons Dias) R João Vilarett (Café),,38.8043111418538,-9.18814825432534,,,,
61_551,,Ramada (Bº Bons Dias) R João Vilarett 36,,38.8055407762969,-9.18829204858892,,,,
61_554,,Ramada (Bº Bons Dias) R Marquesa D'Alorna 6 (Igre,,38.8041925309901,-9.18708498895539,,,,
61_315,,Ramada (Bº Bons Dias) R Vilarett,,38.807006349962,-9.1881385678407,,,,
61_592,,Ramada (Bº Bons Dias) R Vilarett,,38.8068891523803,-9.18811691510835,,,,
61_555,,Ramada (Bº Bons Dias) R Vilarett (X) R Alves Costa,,38.8055682426042,-9.18834293315786,,,,
61_549,,Ramada (EN 250/2) Alto Ramada 49,,38.8027754600669,-9.19397909867793,,,,
61_2303,,Ramada (R Álvaro Campos) Grupo Desportivo,,38.8059227741101,-9.18920290210404,,,,
61_1788,,Ramada (R Alves Cunha) Jardim Infantil,,38.8024414099698,-9.1883400546932,,,,
61_944,,Ramada (R Brunilde Júdice 3),,38.8038053522408,-9.1939003498581,,,,
61_631,,Ramada (R João Villaret),,38.8013291141013,-9.18690310403374,,,,
61_591,,Ramada (R Palmira Bastos),,38.8028094512368,-9.18948855815672,,,,
61_570,,Ramada Baixo 12 B (EN 250/2),,38.7990958430114,-9.18700543185616,,,,
61_571,,Ramada Baixo Fte 12 (EN 250/2),,38.7994945123445,-9.1869716854768,,,,
61_559,,Ramada 12 (EN 250/2),,38.8029033265655,-9.1903935478648,,,,
61_564,,Ramada 13 (EN 250/2),,38.8028902467136,-9.19076049360178,,,,
61_561,,Ramada 40 (EN 250/2) Alto Ramada,,38.8027889051902,-9.19348213231979,,,,
61_1132,,Ribas Baixo (Esc),,38.9028904300922,-9.16249220471617,,,,
61_1131,,Ribas Baixo (Esc),,38.9028061262215,-9.16258618909779,,,,
61_1133,,Ribas Cima,,38.9033536460316,-9.1723706712124,,,,
61_1134,,Ribas Cima,,38.9033258617522,-9.17276374318621,,,,
61_1136,,Ribas Cima (Lavadouro),,38.9022943061994,-9.17598573115068,,,,
61_1135,,Ribas Cima (Lavadouro),,38.9022971251115,-9.17581024013121,,,,
61_1138,,Ribas Cima (X) Vale S GiÆo,,38.9022620930903,-9.17799091106445,,,,
61_1137,,Ribas Cima (X) Vale S Gião,,38.9022618829602,-9.17800588050714,,,,
61_577,,Rio Sapo,,38.7821507118322,-9.25689959870432,,,,
61_576,,Rio Sapo,,38.7821629657196,-9.25618718552079,,,,
61_575,,Rio Sapo (Ferro Velho),,38.7821280789452,-9.25356199055258,,,,
61_574,,Rio Sapo (Ferro Velho),,38.7824021794882,-9.25398953730876,,,,
61_1141,,Romeira Cima,,38.9027186454062,-9.07637373134081,,,,
61_1142,,Romeira Cima,,38.90250489157,-9.07842510926872,,,,
61_1139,,Romeira de Baixo,,38.9035875183309,-9.09335433140568,,,,
61_1140,,Romeira do Baixo,,38.9035624338181,-9.09280323479434,,,,
61_579,,Rossio Trigache (Café),,38.8041668629662,-9.21015157257849,,,,
61_251,,Rossio Trigache (Café),,38.8043091663586,-9.21027179916641,,,,
61_1825,,S João Talha  (R D Af Henriques) Centro Comercial,,38.8227263224565,-9.09825405872467,,,,
61_1826,,S João Talha  (R D Af Henriques) Stand,,38.8188390208806,-9.09914308999138,,,,
61_1832,,S João Talha (EN 10),,38.8226311718205,-9.0890985743063,,,,
61_1831,,S João Talha (EN 10) Est Serviço,,38.8232249685894,-9.08834308954075,,,,
61_1829,,S João Talha (R D Af Henriques),,38.8196451846748,-9.09870223905104,,,,
61_1828,,S João Talha (R D Af Henriques) (X) Bº Fraternidad,,38.8148094230521,-9.10035207389243,,,,
61_1827,,S João Talha (R D Af Henriques) (X) Bº Fraternidad,,38.8159115019638,-9.10030882210272,,,,
61_1830,,S João Talha (R D Af Henriques) Restaurante,,38.8224334596995,-9.09815602168249,,,,
61_1153,,S JuliÆo Tojal (Chafariz),,38.8580163521177,-9.13699217767695,,,,
61_1155,,S JuliÆo Tojal (Oficinas),,38.8598524132566,-9.13516160747485,,,,
61_1146,,S Julião Tojal (Chafariz),,38.8580167374876,-9.13698973405802,,,,
61_1150,,S Julião Tojal (Igreja),,38.8570824993744,-9.13186813154825,,,,
61_1151,,S Julião Tojal (Igreja),,38.8574876995401,-9.1320191872339,,,,
61_1154,,S Julião Tojal (Oficinas),,38.8597208541117,-9.13522952262328,,,,
61_1144,,S Julião Tojal (R 1º Maio 100 ),,38.8596191898462,-9.1289520203494,,,,
61_1164,,S Julião Tojal (R 1º Maio 109),,38.8595709939804,-9.12898948417321,,,,
61_1160,,S Julião Tojal (R 1º Maio 52),,38.8577951708893,-9.13280434806569,,,,
61_1159,,S Julião Tojal (R 1º Maio 57),,38.8576789468325,-9.13329491273418,,,,
61_1011,,S Julião Tojal (R 1º Maio 74 ),,38.8584214200694,-9.13050530398526,,,,
61_1012,,S Julião Tojal (R 1º Maio 95 ),,38.8584787476169,-9.13036760994351,,,,
61_1149,,S Julião Tojal (R Arquitecto Dias Coelho 10),,38.8602840551411,-9.12687081304591,,,,
61_1161,,S Julião Tojal (R Arquitecto Dias Coelho 10),,38.8602842810564,-9.12686873967946,,,,
61_1165,,S Julião Tojal (X) B Tazim,,38.8570837725302,-9.13492266991312,,,,
61_1166,,S Julião Tojal (X) B Tazim,,38.8572849951832,-9.13500828659271,,,,
61_1168,,S Roque,,38.8497764149909,-9.15905367717824,,,,
61_1167,,S Roque,,38.8497484475322,-9.15915393815929,,,,
61_1170,,S Roque (X) A Das Lebres,,38.8480322844473,-9.16170622905001,,,,
61_1169,,S Roque (X) A Das Lebres,,38.847987166627,-9.16172196393415,,,,
61_945,,Sacavém ( Via Oriente) Fte R Oder,,38.7920883734924,-9.09928253904229,,,,
61_1706,,Sacavém (Av Comunidades),,38.7975888392402,-9.11539395172228,,,,
61_1704,,Sacavém (Av Comunidades),,38.7975377298541,-9.11557341925108,,,,
61_1909,,Sacavém (Av Mª Luísa Braancamp),,38.792537714329,-9.10591795465318,,,,
61_1833,,Sacavém (Av S José),,38.7935865425636,-9.10600500302592,,,,
61_1834,,Sacavém (Av S José) EPAL,,38.7937065830496,-9.10556708054149,,,,
61_2417,,Sacavém (Centro Saúde),,38.7971842882898,-9.11596935344269,,,,
61_2425,,Sacavém (Centro Saúde),,38.7975614196559,-9.11583578107708,,,,
61_2262,,Sacavém (Centro Saúde),,38.7977063554483,-9.11711186673031,,,,
61_1835,,Sacavém (EN 10) Banco,,38.7910331969281,-9.1061238023308,,,,
61_1976,,Sacavém (EN 10) Banco,,38.7933872599386,-9.10392747085184,,,,
61_1975,,Sacavém (EN 10) Clínica Sto António,,38.7935256834945,-9.1039701102495,,,,
61_1836,,Sacavém (EN 10) Quiosque,,38.7910310372003,-9.10613491989466,,,,
61_1837,,Sacavém (EN 6-1) (X) Bº Trapézio,,38.7871321488745,-9.1036196284247,,,,
61_1838,,Sacavém (EN 6-1) Central Telecom,,38.7909631988355,-9.10378411136444,,,,
61_1839,,Sacavém (EN 6-1) Edp (Grupo Exploração Sul),,38.7874902259974,-9.10358540119625,,,,
61_1840,,Sacavém (EN 6-1) Fábrica,,38.7906942857829,-9.10375767713963,,,,
61_1720,,Sacavém (EN10),,38.7901576421862,-9.11055576603764,,,,
61_1435,,Sacavém (Est Militar) Rotunda,,38.7968705271585,-9.11656175014107,,,,
61_1692,,Sacavém (Estação CP),,38.7961760622852,-9.09984441170466,,,,
61_2261,,Sacavém (Estação CP),,38.7958723931529,-9.09994304655096,,,,
61_1346,,Sacavém (Estação CP),,38.7963221305808,-9.09972061162641,,,,
61_1804,,Sacavém (Estr Militar) Casa Cultura,,38.8005257692131,-9.11502702910115,,,,
61_2463,,Sacavém (Estr Militar) Casa Cultura,,38.8005742950637,-9.11522146405236,,,,
61_1431,,Sacavém (Estr Militar) Rotunda,,38.7965729153591,-9.11633128028438,,,,
61_1999,,Sacavém (Lgo 1º Maio),,38.7917870677597,-9.1077885112002,,,,
61_2240,,Sacavém (Passeio Heróis Mar) (X) R Capitão Cook,,38.7935643024262,-9.0976651024686,,,,
61_2229,,Sacavém (Passeio Heróis Mar) Col Pedro Arrupe,,38.7935692422613,-9.09766316739519,,,,
61_2410,,Sacavém (Pç Republica),,38.7968298223239,-9.10493164632788,,,,
61_1914,,Sacavém (Pç República),,38.795769603044,-9.10531120148901,,,,
61_1349,,Sacavém (Pç Republica) EPAL,,38.7965235807237,-9.10411355358376,,,,
61_1911,,Sacavém (Pç República) Est Serviço,,38.7967582062181,-9.10471668362749,,,,
61_1910,,Sacavém (Pç República) Est Serviço,,38.7964293388973,-9.10439880152384,,,,
61_1841,,Sacavém (Pç República) Est Serviço,,38.7963607500779,-9.10438505908476,,,,
61_1781,,Sacavém (Pç Republica) Fte Epal,,38.7965033115318,-9.10415714279464,,,,
61_1913,,Sacavém (Pç República) Igreja,,38.7964160704632,-9.10523737183686,,,,
61_1912,,Sacavém (Pç República) Igreja,,38.7965576118899,-9.1052170693172,,,,
61_1842,,Sacavém (Pç República) Igreja,,38.7962386019525,-9.10526569636123,,,,
61_1843,,Sacavém (Pç República) Jardim,,38.7959065107843,-9.10531545043265,,,,
61_1844,,Sacavém (R Auta P Carlos) Pcta Bomb Voluntários,,38.7938831153149,-9.10812163262835,,,,
61_1845,,Sacavém (R Auta P Carlos) Pcta D Dinis,,38.7938617085251,-9.10824493971715,,,,
61_1527,,Sacavém (R Estado Índia),,38.7901622892501,-9.11053145010725,,,,
61_2254,,Sacavém (R Fábrica Loiça Sacavém),,38.7929311877725,-9.10358659463579,,,,
61_1380,,Sacavém (R Heróis Ultramar) Esc Bartolomeu Dias,,38.7922838549187,-9.11059374236573,,,,
61_1746,,Sacavém (R Heróis Ultramar 10),,38.7922554286217,-9.11059531539109,,,,
61_2422,,Sacavém (R José Dom Morais),,38.7965080649828,-9.10414800120765,,,,
61_1767,,Sacavém (R Júlio Bruno C Pereiranº 38),,38.7932062221835,-9.11041321697654,,,,
61_1352,,Sacavém (R Júlio Bruno Costa Pereira Lte 3B),,38.7931986325172,-9.11040527867525,,,,
61_2420,,Sacavém (R Júlio Costa Pereira) R Salvador Allende,,38.7940987066638,-9.11146369962886,,,,
61_2421,,Sacavém (R Loriga),,38.7896473425322,-9.10426876518092,,,,
61_2423,,Sacavém (R Major Rosa Bastos) (X) R Salvador Allen,,38.795102558097,-9.112894986061,,,,
61_2419,,Sacavém (R Major Rosa Bastos) (X) R Salvador Allen,,38.7951022915657,-9.11289521340119,,,,
61_2418,,Sacavém (R Major Rosa Bastos) (X) R Teófilo Lopes ,,38.7965666465958,-9.11124067262755,,,,
61_2424,,Sacavém (R Major Rosa Bastos) (X) R Teófilo Lopes ,,38.7964949082406,-9.11128603224387,,,,
61_2429,,Sacavém (R Marechal Gomes Costa),,38.7957916128878,-9.1166717175711,,,,
61_1847,,Sacavém (R Mig Bombarda),,38.8019768040698,-9.1105093156976,,,,
61_1851,,Sacavém (R Mig Bombarda) (X) Unhos,,38.8035853393684,-9.11141136563772,,,,
61_1848,,Sacavém (R Mig Bombarda) Fábrica (X) Unhos,,38.8036533497343,-9.11143609285548,,,,
61_1850,,Sacavém (R Mig Bombarda) Remal,,38.798141291884,-9.10712020281189,,,,
61_1849,,Sacavém (R Mig Bombarda) Remal,,38.79819253416,-9.10717833699812,,,,
61_1852,,Sacavém (R Mig Bombarda) Vila Aires,,38.8011573865686,-9.11038318116178,,,,
61_2366,,Sacavém (R Miguel Bombarda) RL,,38.8002527571819,-9.10985890656223,,,,
61_2365,,Sacavém (R Miguel Bombarda) RL,,38.8002341323419,-9.10983592036922,,,,
61_2256,,Sacavém (R Prof José Duarte Morais 6),,38.7943153992152,-9.10824776296122,,,,
61_2426,,Sacavém (R Qta S João Areias),,38.797970168324,-9.11721055363401,,,,
61_2378,,Sacavém (R Salvador Allende),,38.7954882680908,-9.11569385097539,,,,
61_2377,,Sacavém (R Salvador Allende),,38.7952615636184,-9.11522302383416,,,,
61_2258,,Sacavém (R Salvador Allende) (X) (R Luís Camões),,38.7948432906803,-9.11082579511325,,,,
61_1853,,Sacavém (R Salvador Allende) Café,,38.794046950145,-9.11046736750165,,,,
61_1854,,Sacavém (R Salvador Allende Lt 4 A),,38.7941553163695,-9.11067264817498,,,,
61_2253,,Sacavém (R Sport Grupo Sacavenense) (X) R Loriga,,38.7889717972554,-9.10570389913348,,,,
61_1383,,Sacavém (R Trigueiros Martel),,38.7909595239133,-9.11241936519066,,,,
61_1745,,Sacavém (R Trigueiros Martel),,38.7910244743975,-9.11236975519722,,,,
61_1855,,Sacavém (R Vasco Gama) Stand,,38.7891516464883,-9.11046869197071,,,,
61_1856,,Sacavém (R Vasco Gama) Sucateiros,,38.7898691821676,-9.11001283518436,,,,
61_1936,,Sacavém (Rua António Spínola),,38.7976279490298,-9.1149603509528,,,,
61_1430,,Sacavém (Urb Terraços Ponte) Qta Mocho,,38.798875662562,-9.11776473322356,,,,
61_1438,,Sacavém (Urb Terraços Ponte) Qta Mocho,,38.7986942672261,-9.11757029998734,,,,
61_2260,,Sacavém (Urb Terraços Ponte Lte 99),,38.7989503263207,-9.11132879364656,,,,
61_1385,,Sacavém (Via Oriente) (X) R Danúbio,,38.7915710682635,-9.09928084882204,,,,
61_1376,,Sacavém (Via Oriente) Pte Vasco Gama,,38.788239717328,-9.09980638753136,,,,
61_727,,Sacavém (Via Oriente) Pte Vasco Gama,,38.7874036748199,-9.09990940218673,,,,
61_2450,,Santo Eloy 11,,38.776504953954,-9.21498470040508,,,,
61_1171,,Serra Alrote (X),,38.9340032235102,-9.14021666433406,,,,
61_1990,,Serra Alrote (X),,38.9341044107386,-9.14019675219336,,,,
61_428,,Serra Amoreira (R Bento Jesus Caraça),,38.8058176439488,-9.19337130518883,,,,
61_942,,Serra Amoreira (R Bento Jesus Caraça),,38.8058157036058,-9.19345884720174,,,,
61_1795,,Serra Amoreira (R Idade Pedra),,38.8106457917776,-9.19599800144128,,,,
61_2179,,Serra Amoreira (R Lusitanos Fte 35),,38.8106624887624,-9.19435432270508,,,,
61_1933,,Serra Amoreira (R Lusitanos Lte 24),,38.811343002972,-9.19564190045856,,,,
61_1938,,Serra Amoreira (R Raúl Brandão) (X) R Idade Pedra,,38.8112646009959,-9.19722260060543,,,,
61_1082,,Serra Helena (R Amadora 1),,38.8054869604227,-9.23946871340797,,,,
61_2086,,Serra Helena (R Amadora),,38.8056644270835,-9.23926746626523,,,,
61_601,,Serra Helena (R Amadora) (X) R Cartaxo,,38.8042874189898,-9.24024956665264,,,,
61_2087,,Serra Helena (R Amadora) (X) R portimão,,38.804303430176,-9.24025367494645,,,,
61_600,,Serra Helena (R Rainha Santa) (X) R Luís Camões,,38.8064635230697,-9.23823885801646,,,,
61_597,,Serra Helena (R Rainha Santa) (X) R Luís Camões,,38.8063918647196,-9.23830352675531,,,,
61_595,,Serra Helena (R Rainha Santa) (X) Trav Rainha Sant,,38.8073937492771,-9.23741663315926,,,,
61_602,,Serra Helena (R Rainha Santa) (X) Trav Rainha Sant,,38.8073937492771,-9.23741663315926,,,,
61_122,,Serra Helena (R Rainha Santa 13),,38.8085940679296,-9.237784637861,,,,
61_596,,Serra Helena (R Rainha Santa Fte 13),,38.8087918051835,-9.23787565681278,,,,
61_604,,Serra Luz (R Padre Américo 2),,38.779829764132,-9.1872246429117,,,,
61_606,,Serra Luz (R Padre Américo 205),,38.7815547053072,-9.18488677928496,,,,
61_608,,Serra Luz (R Padre Américo 3),,38.7776342289071,-9.19123734008389,,,,
61_607,,Serra Luz (R Padre Américo 30) Churrasqueira,,38.7775446712054,-9.19133217116546,,,,
61_609,,Serra Luz (R Padre Américo Fte 2),,38.7797635270694,-9.18728534027618,,,,
61_605,,Serra Luz (R Padre Américo Lte 276),,38.7813043144466,-9.18510161193556,,,,
61_1175,,Sete Casas (Chafariz),,38.8399024161424,-9.17678035554065,,,,
61_1172,,Sete Casas (R Com Carvalho Ara£jo 115),,38.8438456715808,-9.17921983493788,,,,
61_1177,,Sete Casas (R Com Carvalho Ara£jo 37),,38.8374498394436,-9.17339001307354,,,,
61_1178,,Sete Casas (R Com Carvalho Ara£jo 91),,38.8424765282478,-9.17804705430575,,,,
61_1176,,Sete Casas (R Com Carvalho Araújo 118),,38.8422457232452,-9.17780657070234,,,,
61_1179,,Sete Casas (R Com Carvalho Araújo 136),,38.8442720841112,-9.17938215781762,,,,
61_1183,,Sete Casas (R Com Carvalho Araújo 52),,38.8376185982287,-9.1741791308761,,,,
61_1180,,Sete Casas (R Com Carvalho Araújo 82),,38.8392996045999,-9.17643648591746,,,,
61_1181,,Sete Casas (SML),,38.8454752115546,-9.17916627809045,,,,
61_1182,,Sete Casas (SML),,38.8454393588264,-9.17920704978961,,,,
61_590,,Sr Roubado (Malaposta),,38.7868881625616,-9.17047522799726,,,,
61_40,,Sr Roubado (Metro),,38.785842851186,-9.17218120444374,,,,
61_123,,Sr Roubado (Metro),,38.7851572580751,-9.17227935210831,,,,
61_90,,Sr Roubado (Metro),,38.7852075276566,-9.17205684383754,,,,
61_248,,Sr Roubado (Metro),,38.7852801590144,-9.17273899435643,,,,
61_42,,Sr Roubado (Metro),,38.785327293735,-9.17156509397371,,,,
61_88,,Sr Roubado (Metro),,38.7853494171215,-9.17147425713227,,,,
61_303,,Sr Roubado (Metro),,38.7852981275749,-9.17168484787618,,,,
61_593,,Sr Roubado 9,,38.7859362992004,-9.17001183756363,,,,
61_1186,,Sta Cruz (Lgo Boa Esperança),,38.8826274457376,-9.10781705946014,,,,
61_1187,,Sta Cruz (X),,38.8799776534457,-9.10197193167614,,,,
61_1189,,Sta Cruz (X),,38.8800661032126,-9.1020945881086,,,,
61_1192,,Sta Eulália (Lgo D Dinis),,38.8825606943936,-9.09928265566391,,,,
61_1191,,Sta Eulália (Lgo D Dinis),,38.8827114203692,-9.09911815639959,,,,
61_1193,,Sta Eulália (R 25 Abril),,38.8816982944445,-9.0991962153928,,,,
61_1194,,Sta Eulália (R 25 Abril),,38.8816618289388,-9.0992854240436,,,,
61_1198,,Sta Iria Azóia (Av Sta Iria),,38.8469619681464,-9.08312193460546,,,,
61_1197,,Sta Iria Azóia (Av Sta Iria) Fte Oficina Megape,,38.8420488703849,-9.08191966879409,,,,
61_1857,,Sta Iria Azóia (Av Sta Iria) Oficina,,38.8423728187696,-9.08197930694905,,,,
61_1199,,Sta Iria Azóia (Av Sta Iria) Passag Superior IC 2,,38.8470161755429,-9.0830746633637,,,,
61_1858,,Sta Iria Azóia (EN 10),,38.8401109593633,-9.08217965810907,,,,
61_1860,,Sta Iria Azóia (EN 10) Fte RL,,38.8437575956393,-9.08023531356647,,,,
61_1859,,Sta Iria Azóia (EN 10) Rodoviária Lisboa,,38.8436577733243,-9.08031650495997,,,,
61_1861,,Sta Iria Azóia (EN10),,38.8400853085273,-9.08219737034243,,,,
61_1523,,Sta Iria Azóia (Estação da CP),,38.8412910716084,-9.08028286259611,,,,
61_1863,,Sta Iria Azóia (Lgo Franc Xavier),,38.843592125179,-9.08458820915624,,,,
61_1864,,Sta Iria Azóia (R Alto Cruzinha Fte Lte 54),,38.8434019240342,-9.09126608312134,,,,
61_1865,,Sta Iria Azóia (R Alto Cruzinha Lte 54),,38.8431018222523,-9.09136978366048,,,,
61_1866,,Sta Iria Azóia (R Angola) Café,,38.8463544929413,-9.08582331051305,,,,
61_1867,,Sta Iria Azóia (R Angola) Cpo Futebol,,38.8446778450527,-9.0900515975489,,,,
61_1868,,Sta Iria Azóia (R Angola) Esc Primária,,38.8447204575241,-9.08965629245236,,,,
61_1202,,Sta Iria Azóia (R Angola) Qta Reynolds,,38.8462433676605,-9.08645691094096,,,,
61_1869,,Sta Iria Azóia (R Franc Xavier),,38.8459315290112,-9.08362465654908,,,,
61_1870,,Sta Iria Azóia (R Franc Xavier) Jardim Ary Santos,,38.8443220121847,-9.08417633593877,,,,
61_1871,,Sta Iria Azóia (R Franc Xavier) Quiosque,,38.8461219059265,-9.08339288954838,,,,
61_1205,,Sta Iria Azóia (R Franc Xavier Lte 34),,38.8444141726154,-9.08415663016104,,,,
61_1873,,Sta Iria Azóia (Urb Alto Eira) R Zeca Afonso 10,,38.844350874792,-9.08881969012813,,,,
61_1872,,Sta Iria Azóia (Urb Alto Eira) R Zeca Afonso 14,,38.8443911668061,-9.08882799210216,,,,
61_615,,Sto Ant¢nio Cavaleiros (X),,38.813123621759,-9.15579187931296,,,,
61_1206,,Sto AntÆo Tojal (Estr Pinteus),,38.8542372619771,-9.14511665133972,,,,
61_406,,Sto AntÆo Tojal (Posto M‚dico),,38.8552470592828,-9.14734250046344,,,,
61_1271,,Sto AntÆo Tojal (Posto M‚dico),,38.8553702239694,-9.14750652140946,,,,
61_1208,,Sto AntÆo Tojal (Pq RL),,38.8542196333636,-9.14464459610821,,,,
61_1210,,Sto AntÆo Tojal (R 25 Abril 44),,38.8559795155922,-9.14102245163469,,,,
61_1207,,Sto Antão Tojal (Jardim),,38.8545049688192,-9.14397683883471,,,,
61_1209,,Sto Antão Tojal (R 25 Abril 37),,38.8559946957212,-9.14099035790681,,,,
61_614,,Sto António Cavaleiros (X),,38.8123043147661,-9.15610050887902,,,,
61_616,,Sto Eloy (Bº Novo),,38.7726043519426,-9.21193064807408,,,,
61_516,,Sto Eloy (Bº Novo),,38.7726868450264,-9.21207266666596,,,,
61_2334,,Sto Eloy Rotunda,,38.7720136242286,-9.21179285421034,,,,
61_617,,Sto Eloy Fte Lte 14,,38.7769887435954,-9.21520964046314,,,,
61_621,,Tapada Vale Lobos (R Tapada) (X) Fonte Aranha,,38.8279838447311,-9.27740864475559,,,,
61_624,,Tapada Vale Lobos (R Tapada) Fonte Aranha,,38.8267543693689,-9.27761100457748,,,,
61_622,,Tapada Vale Lobos (R Tapada 3),,38.8271356426238,-9.27779571838504,,,,
61_623,,Tapada Vale Lobos (R Tapada Fte 46),,38.8240005275826,-9.27414417360547,,,,
61_1214,,Torre Besoeira (R Lu¡s Camäes 1),,38.8864759595525,-9.17728103129608,,,,
61_1213,,Torre Besoeira (R Manuel Pedro Franco 10),,38.8864751772398,-9.17727991932774,,,,
61_1211,,Torre Besoeira (R Manuel Pedro Franco 59),,38.886998854936,-9.17866754677005,,,,
61_1212,,Torre Besoeira (R Manuel Pedro Franco 59),,38.887047426101,-9.17879335050435,,,,
61_1216,,TrancÆo (X) Zambujal,,38.8774735678205,-9.13084462789474,,,,
61_1215,,Trancão (X) Zambujal,,38.8773170338116,-9.13091618138085,,,,
61_1876,,Unhos (Lgo Igreja),,38.826364132412,-9.1242345805447,,,,
61_1877,,Unhos (Lgo Igreja 3 A),,38.8263371039183,-9.12422667084669,,,,
61_1878,,Unhos (R Com Ramiro Correia) Chafariz,,38.8304235438468,-9.12475461158609,,,,
61_1879,,Unhos (R Com Ramiro Correia) Rio Trancão,,38.830321825187,-9.12477895408394,,,,
61_1880,,Unhos (R Esperança) Fte Olival,,38.8232072974149,-9.12235212826065,,,,
61_1881,,Unhos (R Esperança) Olival,,38.823199247873,-9.12234983058989,,,,
61_1882,,Unhos (R Luis Camões) Viv Ana Maria,,38.824776246118,-9.12271422711944,,,,
61_1883,,Unhos (R Luís Camões) Viv Machado,,38.824902847406,-9.12273257637172,,,,
61_1884,,Urb Areeiro (Praceta Abel Manta),,38.8251823144052,-9.09480314670099,,,,
61_1885,,Urb Areeiro (Praceta Abel Manta) Quiosque,,38.8257340846266,-9.09542599286915,,,,
61_1886,,Urb Areeiro (R Heróis Gde Guerra),,38.8243669375795,-9.09496127930099,,,,
61_1887,,Urb Areeiro (R Heróis Gde Guerra),,38.824089434866,-9.09502109672319,,,,
61_1512,,Urb Casal Serra (Av Casal Serra) Armazém 1,,38.8597675217585,-9.08041480674037,,,,
61_1503,,Urb Casal Serra (Av Casal Serra) Fte Armazém 1,,38.859776492882,-9.08041049310253,,,,
61_1801,,Urb Casal Serra (Av D Vic Afonso Valente 49),,38.8635034051406,-9.07334629692087,,,,
61_1800,,Urb Casal Serra (R José Nog Vaz) Supermercados,,38.8635308778186,-9.07469109904569,,,,
61_1761,,Urb Casal Serra (R José Nog Vaz Lte 68),,38.8636351142006,-9.07743678235645,,,,
61_1504,,Urb Casal Serra (R José Nogueira Vaz Fte Lte 69),,38.8636851588617,-9.0773997011006,,,,
61_1506,,Urb Casal Serra (R José Nogueira Vaz Lte 88),,38.8631264654764,-9.07474814452442,,,,
61_1754,,Urb Casal Serra (R M Carlota Oliveira Lte 105),,38.8637138598541,-9.07605067016041,,,,
61_1505,,Urb Casal Serra (R Maria Carlota Oliveira Lte 94),,38.8637105663412,-9.07613401350138,,,,
61_1993,,Urb Casal Serra (R Sto Ant Bolonha),,38.8623509157209,-9.07788281067924,,,,
61_1509,,Urb Casal Serra (R Sto Ant Bolonha Lte 48),,38.8607452435407,-9.07571794734684,,,,
61_1510,,Urb Casal Serra (R Sto Ant Bolonha Lte 51),,38.8607373513477,-9.07621762243809,,,,
61_1511,,Urb Casal Serra (R Sto Ant Bolonha Lte 61),,38.8623403734912,-9.07787572724571,,,,
61_2386,,Urb Jardim Amoreira (X) Casal Reis,,38.8149680962715,-9.18776561430772,,,,
61_1603,,Urb Morgado (R Alb Sanches Castro),,38.8588913018645,-9.07546911843537,,,,
61_1764,,Urb Morgado (R Alb Sanches Castro),,38.8587564837806,-9.07564707732089,,,,
61_1991,,Urb Morgado (R Alb Sanches Castro) (X) Av D Vicent,,38.8604845893717,-9.07503348803443,,,,
61_1595,,Urb Morgado (R Batista Pereira) Fte Piscinas,,38.8586237642828,-9.077788028839,,,,
61_1765,,Urb Morgado (R Batista Pereira 3),,38.8585774759115,-9.07781177017284,,,,
61_1507,,Urb Tágides Parque (Av P D Martinho) Fte CGD,,38.8563907762245,-9.0746814172895,,,,
61_2057,,Urb Tágides Parque (Av Póv S Martinho) CPCD,,38.8564655730249,-9.07458915287449,,,,
61_2056,,Urb Tágides Parque (R Aristides Sousa Mendes Lte ,,38.8552117299234,-9.07640025716778,,,,
61_2026,,Urb Tágides Parque (R Dr Franc Sá Carneiro Lte 40,,38.8568275580925,-9.07780493240604,,,,
61_1447,,Urb Tágides Parque (R Luís Sá Lte 41),,38.8564370218037,-9.07842474088675,,,,
61_2202,,Vale Figueira (B Serro Picão) R Alto Belavista (X),,38.8339829777056,-9.10744707742376,,,,
61_2208,,Vale Figueira (B Serro Picão) R Amoreira (X) R Alt,,38.8340509704697,-9.10744615146438,,,,
61_2204,,Vale Figueira (B Serro Picão) R Associação 22,,38.8365769647675,-9.10570045501371,,,,
61_2206,,Vale Figueira (B Serro Picão) R Associação Lte 15,,38.8367673929148,-9.10562232557014,,,,
61_2203,,Vale Figueira (B Serro Picão) R D Sebastião Fte 4,,38.8354006201198,-9.10617961781618,,,,
61_2207,,Vale Figueira (B Serro Picão) R D Sebastião 6,,38.8354087302072,-9.10604694387947,,,,
61_2279,,Vale Figueira (Bº Fontes) R Chafariz (X) R Joaq Ag,,38.8272746184292,-9.103163262684,,,,
61_2211,,Vale Figueira (Bº Fontes) R Terra Fontes Fte 17,,38.827761112065,-9.1045307962024,,,,
61_2199,,Vale Figueira (Bº Fontes) R Terra Fontes Fte 17,,38.8278387632986,-9.1047901871032,,,,
61_2209,,Vale Figueira (Bº Troviscais) R Altamira (Vilas S ,,38.8317113305694,-9.10617473544404,,,,
61_2201,,Vale Figueira (Bº Troviscais) R Altamira (Vilas S ,,38.8315976957218,-9.10612815247377,,,,
61_2200,,Vale Figueira (Bº Troviscais) R Ligação (X),,38.8295372247878,-9.10676857055839,,,,
61_1411,,Vale Figueira (Bº Vista Alegre) R Chafariz (X),,38.8272849321396,-9.1031580546876,,,,
61_1889,,Vale Figueira (R Alf Vit Costa),,38.8244455517366,-9.10201049257995,,,,
61_1888,,Vale Figueira (R Alf Vit Costa) Escola,,38.8267192904301,-9.10130926698791,,,,
61_1891,,Vale Figueira (R Alf Vit Costa) Qta Casa Branca,,38.8269260964908,-9.10117853895348,,,,
61_1892,,Vale Figueira (R Angola) Jardim Parque,,38.8249033485192,-9.10241909741381,,,,
61_1893,,Vale Figueira (R D Nuno Álv Pereira) Fábrica,,38.8246328229419,-9.10026618342195,,,,
61_1894,,Vale Figueira (R Escola),,38.8237835084172,-9.10288356486722,,,,
61_1895,,Vale Figueira (R Escola Lte 6),,38.8243522793788,-9.1031379783598,,,,
61_2210,,Vale Figueira (R Ligação) (X),,38.8291623644339,-9.10664900186149,,,,
61_628,,Vale Forno (X),,38.7846357041398,-9.17501238187067,,,,
61_1157,,Vale Forno (X),,38.7847033042507,-9.17470290435509,,,,
61_634,,Vale Grande (Escola),,38.7899423293152,-9.22180086441497,,,,
61_636,,Vale Grande (Estr Municipal) (X) R Rainha D Leonor,,38.7879194132614,-9.22047359711976,,,,
61_633,,Vale Grande (R Ilha Madeira 260),,38.7872682855953,-9.21992904318744,,,,
61_495,,Vale Grande (R Ilha Madeira 261),,38.78733239392,-9.21957296652116,,,,
61_510,,Vale Grande (R Rainha D Leonor 230),,38.7877936696064,-9.220790747835,,,,
61_2099,,Vale Grande (R Sta Isabel) Posto EDP,,38.7892185998919,-9.22209412092241,,,,
61_632,,Vale Grande (R Sta Isabel 268),,38.7897516462459,-9.22110179457024,,,,
61_638,,Vale Grande (R Vale Sto António) Escola,,38.7835943805286,-9.21649338486754,,,,
61_276,,Vale Grande (R Vale Sto António) Escola,,38.7838744298894,-9.2164569729926,,,,
61_637,,Vale Grande (R Viriato) Igreja,,38.7854788244485,-9.2175048506644,,,,
61_511,,Vale Grande (R Viriato) Igreja,,38.7855509758256,-9.21751456698999,,,,
61_2354,,Vale Lobos (Lgo Combatentes Ultramar),,38.8183637781087,-9.28529453558905,,,,
61_2356,,Vale Lobos (Lgo Combatentes Ultramar 18),,38.8181048475741,-9.28561521991983,,,,
61_640,,Vale Lobos (R Bernardim Ribeiro 21),,38.8194173334663,-9.28348701846969,,,,
61_639,,Vale Lobos (R Bernardim Ribeiro 24),,38.8192938963649,-9.28387440958954,,,,
61_2357,,Vale Lobos (R Bernardim Ribeiro 32),,38.8194250462163,-9.28129822436461,,,,
61_2353,,Vale Lobos (R Bernardino Ribeiro 53),,38.8195815791572,-9.28098345100742,,,,
61_650,,Vale Nogueira,,38.8291995868934,-9.22398193794284,,,,
61_648,,Vale Nogueira (Casal),,38.8256841514145,-9.22401023840644,,,,
61_647,,Vale Nogueira (Casal),,38.8253206486684,-9.22382733998448,,,,
61_651,,Vale Nogueira Cima,,38.8251884842295,-9.22495269334275,,,,
61_652,,Vale Nogueira Cima,,38.8254033870349,-9.22508253926773,,,,
61_1217,,Vale S GiÆo (X),,38.9094772243656,-9.19368668593632,,,,
61_2395,,Vale S Gião (Rotunda),,38.9097577119176,-9.19497861223835,,,,
61_1218,,Vale S Gião (X),,38.9095173989529,-9.19364553951251,,,,
61_1219,,Venda Pinheiro (Av 9 Julho) Escola,,38.925554071814,-9.23317060572195,,,,
61_1967,,Venda Pinheiro (Av 9 Julho) Escolas,,38.9255924769369,-9.23320673523824,,,,
61_1223,,Venda Pinheiro (Av 9 Julho 104),,38.9267852524782,-9.23423162013165,,,,
61_1969,,Venda Pinheiro (Av 9 Julho 111),,38.9269507888781,-9.23441188026902,,,,
61_1224,,Venda Pinheiro (Av 9 Julho 22),,38.9208325275976,-9.23007762071972,,,,
61_1222,,Venda Pinheiro (Av 9 Julho 41),,38.9204033774312,-9.23020426902652,,,,
61_1221,,Venda Pinheiro (X) Lisboa,,38.9176875606349,-9.22875389795419,,,,
61_1225,,Venda Pinheiro (X) Lisboa,,38.917689531879,-9.22896386620943,,,,
61_901,,Venda Seca (Av Fernão M Pinto)  (X),,38.783545935419,-9.28675261202246,,,,
61_653,,Venda Seca (Av Fernão M Pinto) (X),,38.7832686586275,-9.28667937446102,,,,
61_658,,Venda Seca (R Liberdade) Chafariz,,38.7831668999002,-9.2834956895162,,,,
61_660,,Venda Seca (R Liberdade 12),,38.7777650521796,-9.27898343801013,,,,
61_661,,Venda Seca (R Liberdade 40),,38.7800440194368,-9.27949699208821,,,,
61_1259,,Venda Seca (R Liberdade 74),,38.781500972002,-9.28096483826237,,,,
61_654,,Venda Seca (R Liberdade 9),,38.7784046610405,-9.27916315977596,,,,
61_655,,Venda Seca (R Liberdade 93) Chafariz,,38.7832630341478,-9.28388621829808,,,,
61_656,,Venda Seca (R Liberdade Fte 42),,38.780395954196,-9.27975901895102,,,,
61_657,,Venda Seca (R Liberdade Fte 74),,38.7816171284066,-9.28115080069891,,,,
61_1226,,Venda Valador (Casal Sto António),,38.9284825371952,-9.2408892612156,,,,
61_1228,,Venda Valador (Casal Sto António),,38.9283072496576,-9.24002229370521,,,,
61_1220,,Verdelha Baixo (Estr Alfarrobeira 3),,38.8861441360117,-9.04840974120516,,,,
61_1130,,Verdelha Baixo (Estr Alfarrobeira 4),,38.8863113702507,-9.04859368475632,,,,
61_1230,,Verdelha Baixo (X) Casal Areias,,38.8887963257445,-9.05122945799588,,,,
61_1231,,Verdelha Baixo (X) Casal Areias,,38.8890192341511,-9.05163203628045,,,,
61_1233,,Verdelha Baixo (X) Casal Areias,,38.8884575925625,-9.05119359654284,,,,
61_1232,,Verdelha Baixo (X) Casal Areias,,38.8888363315922,-9.05189029445371,,,,
61_1239,,Verdelha do Ruivo,,38.8866167162106,-9.07369161851173,,,,
61_1236,,Verdelha do Ruivo (Fábrica),,38.8817520987359,-9.06902619595805,,,,
61_1237,,Verdelha do Ruivo (R Gen Humb Delgado),,38.8860923583196,-9.07212273154024,,,,
61_1238,,Verdelha do Ruivo (R Gen Humb Delgado),,38.8860840601153,-9.07211835218836,,,,
61_1235,,Verdelha Ruivo (Fábrica),,38.8818403381274,-9.06917406063774,,,,
61_1896,,Via Rara,,38.8511688925615,-9.08566573618201,,,,
61_1900,,Via Rara (Lgo Comércio) Cabine Telecom,,38.8500827669404,-9.08392816542036,,,,
61_1901,,Via Rara (Lgo Comércio 1),,38.8500086445248,-9.08381241502684,,,,
61_1898,,Via Rara (R Olival Fte 31),,38.8500849208756,-9.08282979603156,,,,
61_1899,,Via Rara (R Olival 31),,38.8501405549738,-9.08284084663541,,,,
61_1902,,Via Rara (R Vale Flor) Parque Jogos,,38.8491054102214,-9.08363639284056,,,,
61_1903,,Via Rara (R Vale Flor 1),,38.8490549767879,-9.08365428208151,,,,
61_1904,,Via Rara (X) Bº Cocheios,,38.8505161961588,-9.08503419030088,,,,
61_1905,,Via Rara (X) R Unidade,,38.8506055755839,-9.08492604141992,,,,
61_1249,,Vialonga (Av  Flamenga) Escolas,,38.8738058872182,-9.08413012051922,,,,
61_1250,,Vialonga (Av Flamenga 2),,38.8718902844163,-9.08379711457973,,,,
61_2038,,Vialonga (Av Flamenga 4),,38.872129678198,-9.08377717056712,,,,
61_1244,,Vialonga (Av Soeiro Pereira Gomes),,38.8771771050974,-9.08652837049,,,,
61_1243,,Vialonga (Av Soeiro Pereira Gomes),,38.8769246742054,-9.08647349074511,,,,
61_2178,,Vialonga (Av Soeiro Pereira Gomes) (X) (Av 24 Deze,,38.8758351918375,-9.08328335160671,,,,
61_1245,,Vialonga (Av Soeiro Pereira Gomes) (X) (Estr Oliva,,38.8752886129349,-9.08307492408166,,,,
61_1246,,Vialonga (Av Soeiro Pereira Gomes) (X) (Estr Oliva,,38.874884670129,-9.08305059334187,,,,
61_1241,,Vialonga (Av Soeiro Pereira Gomes) (X) (R Barbosa ,,38.8759049930867,-9.08500061048585,,,,
61_1242,,Vialonga (Av Soeiro Pereira Gomes) (X) (R Barbosa ,,38.8759032480097,-9.08519903824889,,,,
61_1247,,Vialonga (Av Soeiro Pereira Gomes) Centro Comunitá,,38.8764358329949,-9.08829100919267,,,,
61_1248,,Vialonga (Av Soeiro Pereira Gomes) Centro Comunitá,,38.8763430652657,-9.088548771958,,,,
61_2188,,Vialonga (Est Olival Fora) (X) (R D Nuno Mendonça),,38.8748874578405,-9.08839511981202,,,,
61_2187,,Vialonga (Estr Olival Fora) (X) (R D Nuno Mendonça,,38.8745734540594,-9.08821566834814,,,,
61_1256,,Vialonga (Lgo Convento),,38.8743839822665,-9.07590510960184,,,,
61_1257,,Vialonga (Lgo República),,38.8733839658594,-9.07834075817484,,,,
61_2193,,Vialonga (R 28 Setembro ) ABEIV,,38.8744016671255,-9.08658251144507,,,,
61_2012,,Vialonga (R 28 Setembro X),,38.8742888495029,-9.08319889924474,,,,
61_1261,,Vialonga (R 28 Setembro 24),,38.8737691927255,-9.08100568375493,,,,
61_1262,,Vialonga (R 28 Setembro 39),,38.8740723679623,-9.08199717923685,,,,
61_1252,,Vialonga (R Coronel Lobo Costa 259),,38.8709759007634,-9.08617235867194,,,,
61_1255,,Vialonga (R Coronel Lobo Costa 259),,38.8709681326476,-9.08623515877048,,,,
61_2483,,Vialonga (R Octávio Pato Jardim),,38.873358904891,-9.08551693229062,,,,
61_2484,,Vialonga (R Octávio Pato Jardim),,38.8733775484274,-9.08554163399511,,,,
61_1258,,Vialonga (R Prof Egas Moniz) (X) Beco Ferreiros,,38.8720066750221,-9.08212365573093,,,,
61_1260,,Vialonga (R Prof Egas Moniz 245),,38.8719107419434,-9.08238637019276,,,,
61_1254,,Vialonga (R Professor Egas Moniz 6),,38.8729909946255,-9.0793856228034,,,,
61_1251,,Vialonga (R Professor Egas Moniz 65),,38.8743873278701,-9.07589609199445,,,,
61_2039,,Vialonga (Vila Flamenga) (Traseira Escolas),,38.8738977586976,-9.08414435997722,,,,
61_1265,,Vialonga (X) R João Deus,,38.8755045986169,-9.07375519999717,,,,
61_1264,,Vialonga (X) R João Deus,,38.8752155790439,-9.07426419438754,,,,
61_877,,Vila de Rei (R 1º Dezembro 10),,38.9044720117816,-9.10122393540396,,,,
61_914,,Vila de Rei (R Movimento das Forças Armadas) (X) E,,38.9029979557403,-9.10058090576366,,,,
61_1276,,Vila Nova (Pça Táxis),,38.9208033472227,-9.13963514104441,,,,
61_1275,,Vila Nova (Pça Táxis),,38.9211369765353,-9.14013094369414,,,,
61_1277,,Vila Nova (R Alfredo Dinis 30),,38.9170714731715,-9.13613831971988,,,,
61_759,,Vila Nova (R Alfredo Dinis 35),,38.9156234451557,-9.13566021496326,,,,
61_760,,Vila Nova (R Alfredo Dinis 35),,38.9156814616364,-9.13567634929409,,,,
61_1278,,Vila Nova (R Alfredo Dinis 41),,38.9177097392697,-9.13678589555734,,,,
61_1280,,Vila Nova (R António Martins 13),,38.9192975398167,-9.13910338703522,,,,
61_2192,,Vila Nova (R António Martins 40),,38.9194816455178,-9.13743389374996,,,,
61_2180,,Vila Nova (R António Martins 40),,38.9194816455178,-9.13743389374996,,,,
61_1274,,Vila Nova (R António Martins 57),,38.9230817306221,-9.14181287995158,,,,
61_1273,,Vila Nova (R António Martins 57),,38.9232011967756,-9.14175118725261,,,,
61_1279,,Vila Nova (R António Martins 8),,38.9192936360063,-9.13909914537898,,,,
61_1283,,Vila Rei (Capela),,38.9015654195975,-9.10721348483967,,,,
61_1284,,Vila Rei (Capela),,38.901907034567,-9.10723707481848,,,,
61_887,,Vila Rei (EN 116) (X) R Marquês Pombal,,38.9018730338367,-9.10418605457291,,,,
61_1282,,Vila Rei (Escola),,38.9039636033218,-9.1037486029363,,,,
61_1285,,Vila Rei (Igreja),,38.9015644901531,-9.10720037700755,,,,
61_2025,,Vila Rei (Lgo Casal Manuel Roberto),,38.904509365183,-9.10280545329456,,,,
61_1286,,Vila Rei (R 25 Abril 44),,38.9026990636733,-9.10589192631479,,,,
61_1281,,Vila Rei (R 25 Abril 68),,38.9030849526202,-9.10465776224604,,,,
61_1287,,Vila Rei (R Movimento das Forças Armadas 7),,38.9037798973508,-9.10023807587476,,,,
61_1289,,Vila Rei (X) Charneca,,38.902706792653,-9.10065254717116,,,,
61_1288,,Vila Rei (X) Charneca,,38.9027672461647,-9.10045907727904,,,,
61_1290,,Zambujal,,38.8713177798407,-9.12294602044178,,,,
61_1964,,Zambujal (B Carrasqueira) R Lírios (X) R Dálias,,38.868668323147,-9.12026880039811,,,,
61_1195,,Zambujal (Bº Carrasqueira) Pq Urbano,,38.86917994413,-9.11970548445666,,,,
61_2118,,Zambujal (Lgo António Sérgio),,38.871282784784,-9.12275660846985,,,,
61_1291,,Zambujal (Qta 4 Pereiras),,38.8644839566251,-9.12463523356415,,,,
61_1292,,Zambujal (Qta 4 Pereiras),,38.8646887387395,-9.12467705102604,,,,
61_1789,,Zambujal (R Fonte Velha),,38.8703983752856,-9.12040840352606,,,,
61_1204,,Zambujal (R Fonte Velha),,38.8707304809857,-9.12057974256736,,,,
61_1293,,Zambujal (R República),,38.8703071100297,-9.12376574631935,,,,
61_1294,,Zambujal (R República 4),,38.8701717466303,-9.12436261491287,,,,
61_1296,,Zambujal (X) Bº Social,,38.868584677589,-9.12550123111935,,,,
61_1295,,Zambujal (X) Bº Social,,38.8688236090746,-9.12551773874484,,,,
61_1297,,Zambujeiro (X),,38.8522166047226,-9.15295603507822,,,,
61_1298,,Zambujeiro (X),,38.8522378498873,-9.15326755103959,,,,
